geometry,lat,lon,name,facility_type,category,priority,addr:street,addr:city,addr:postcode,phone,website,opening_hours,operator,capacity,building
POINT (112.7521186 -7.2634443),-7.2634443,112.7521186,Pertamina,fuel,transport,3,,,,,,,PT Pertamina,,
POINT (112.7700657 -7.2999506),-7.2999506,112.7700657,APOTIK RUMINI,pharmacy,healthcare,1,,,60119,,,,,,
POINT (112.7883399 -7.3131239),-7.3131239,112.7883399,Gereja Kristen Abdiel Gloria,place_of_worship,community,4,,,,,,,,,
POINT (112.7895415 -7.3154976),-7.3154976,112.7895415,Davina Playgroup & TK,kindergarten,education,2,,,,,,,,,
POINT (112.7912659 -7.3160351),-7.3160351,112.7912659,Apotik Jireh,pharmacy,healthcare,1,,,,,,,,,
POINT (112.7348462 -7.1978389),-7.1978389,112.7348462,Surabaya D2,ferry_terminal,transport,3,,,,,,,,,
POINT (112.735117 -7.1986095),-7.1986095,112.735117,Surabaya D3,ferry_terminal,transport,3,,,,,,,,,
POINT (112.7288533 -7.3110598),-7.3110598,112.7288533,Telkom University Surabaya,university,education,2,Jalan Ketintang,"Ketintang, Gayungan, Surabaya, East Java",60231,,https://surabaya.telkomuniversity.ac.id/,,,,
POINT (112.7386341 -7.3054308),-7.3054308,112.7386341,Yohanes Pemandi,place_of_worship,community,4,,,,,,,,,
POINT (112.7266295 -7.3156467),-7.3156467,112.7266295,IKIP Widya Dharma,university,education,2,Jl. Ketintang No.147,,,031-8288141,,,,,
POINT (112.7642977 -7.3000873),-7.3000873,112.7642977,Sekolah Tinggi Ilmu Ekonomi Perbanas,university,education,2,Jl. Nginden Semolo No. 34-36,,,031-5938151,www.perbanas.ac.id,,,,
POINT (112.7407067 -7.2672997),-7.2672997,112.7407067,Sekolah Tinggi Ilmu Ekonomi Prima Visi,college,education,2,J l . Basuki Rachmad 129-137,,,031-5316770,www.stieprimavisi.ac.id,,,,
POINT (112.7494752 -7.3208538),-7.3208538,112.7494752,Kimia Farma,pharmacy,healthcare,1,Raya Tenggilis,,,,,24/7,,,
POINT (112.7535063 -7.320133),-7.320133,112.7535063,Apotik SABA,pharmacy,healthcare,1,Raya Tenggilis,Surabaya,60292,,,,,,
POINT (112.7552764 -7.3200785),-7.3200785,112.7552764,Apotik Sentra Medika,pharmacy,healthcare,1,Raya Tenggilis,Surabaya,60292,,,,,,
POINT (112.7346504 -7.1971584),-7.1971584,112.7346504,Surabaya D1,ferry_terminal,transport,3,,,,,,,,,
POINT (112.6339175 -7.3033408),-7.3033408,112.6339175,Kantor Pos SB Lakarsantri 60227 A,post_office,government,3,Jl. Raya Lakarsantri,"Lakarsantri, Kota SBY, Jawa Timur, Indonesia",60211,,,,,,
POINT (112.7666976 -7.2995751),-7.2995751,112.7666976,Kantor Pos Untag,post_office,government,3,Jalan Nginden Semolo,"Ngiden Jangkungan, Sukolilo, Surabaya",60118,,,,,,
POINT (112.7901903 -7.3206545),-7.3206545,112.7901903,Apotek K24 Pandugo,pharmacy,healthcare,1,Jl. Pandugo,"Penjaringan Sari, Rungkut, Surabaya",60297,,,,,,
POINT (112.7758197 -7.287316),-7.287316,112.7758197,Apotek Klampis Farma,pharmacy,healthcare,1,Jl. Klampis Jaya Ruko Klampis Square A,"Klampis Ngasem, Sukolilo, Surabaya",60117,,,,,,
POINT (112.6972437 -7.2677062),-7.2677062,112.6972437,Apotek Viva Generik Donowati,pharmacy,healthcare,1,"JL. Raya Donowati 6,","Sukomanunggal, Surabaya",60188,,,,,,
POINT (112.7471866 -7.2480625),-7.2480625,112.7471866,Apotik Senang,pharmacy,healthcare,1,Jl. Pecindilan No.8,"Kapasari, Genteng, Surabaya",60273,,,,,,
POINT (112.7719449 -7.2795304),-7.2795304,112.7719449,Apple Tree Preschool,kindergarten,education,2,Jl. Raya Dharma Husada Indah,"Mojo, Gubeng, Surabaya",60285,,,,,,
POINT (112.7462036 -7.3221665),-7.3221665,112.7462036,Klinik Kencana Medika,clinic,healthcare,1,Jl. Raya Kendangsari,"Jemur Wonosari, Wonocolo, Kota SBY, Jawa Timur, Indonesia",60237,,,,,,
POINT (112.7717059 -7.2880725),-7.2880725,112.7717059,Kliknik Spesial Meridian,clinic,healthcare,1,Manyar Tirtomoyo 3,Surabaya,60116,,,,,,
POINT (112.6696096 -7.2655948),-7.2655948,112.6696096,Lab Komputer Mardi Sunu,school,education,2,Pasar Kembang,"Jawa Timur, Indonesia",60263,,,,,,
POINT (112.7539453 -7.2915096),-7.2915096,112.7539453,Scoliosis Correction Clinic,clinic,healthcare,1,Jl. Ngagel Jaya Tengah,"Pucang Sewu, Surabaya, East Java",60283,,,,,,
POINT (112.735286 -7.2934043),-7.2934043,112.735286,Medika Utama,clinic,healthcare,1,Jl. Ciliwung,"Darmo, Wonokromo, Kota SBY, Jawa Timur, Indonesia",60241,,,,,,
POINT (112.7369126 -7.2818895),-7.2818895,112.7369126,Miracle Aesthetic Clinic Thamrin,clinic,healthcare,1,Jl. M H. Tamrin,"Dr. Sutomo, Surabaya, Surabaya City, East Java, Indonesia",60264,,,,,,
POINT (112.7817642 -7.2801062),-7.2801062,112.7817642,Miracle Aesthetic Clinic Kertajaya Indah,clinic,healthcare,1,Jl. Raya Kertajaya Indah Blok O,"Surabaya City, East Java, Indonesia",60282,,,,,,
POINT (112.7487629 -7.2970532),-7.2970532,112.7487629,Gereja Pantekosta di Indonesia Barat Jemaat Bukit Zaitun,place_of_worship,community,4,Jl. Ngagel Mulyo I,"Ngagelrejo, Wonokromo, Surabaya",60245,,,,,,
POINT (112.7488414 -7.2533533),-7.2533533,112.7488414,Dr. Silvester Hariwidodo D.Spa,doctors,healthcare,1,Jl. Ketupa,"Tambaksari, Surabaya, East Java",60136,,,,,,
POINT (112.7024041 -7.2833731),-7.2833731,112.7024041,Family Dental Care,dentist,healthcare,1,"JL. Kupang Indah 16,","Dukuh Kupang, Dukuh Pakis, Surabaya",60225,,,,,,
POINT (112.7436009 -7.2623101),-7.2623101,112.7436009,Taman Prestasi,ferry_terminal,transport,3,,,,,https://tiketwisata.surabaya.go.id,,Pemerintah Kota Surabaya,,
POINT (112.7623083 -7.2753159),-7.2753159,112.7623083,ApotekBoy_Dr.Franky,pharmacy,healthcare,1,Jl.Raya Menur No.4,,,0315039881,,,,,
POINT (112.6566855 -7.2850815),-7.2850815,112.6566855,Tiara,pharmacy,healthcare,1,,,,+62-31-57431789,,Mo-Su 06:30-23:00,,,
POINT (112.6658215 -7.2941099),-7.2941099,112.6658215,Surabaya European School,school,education,2,,,,+62317391751,https://surabayaeuropeanschool.com/,,,,
POINT (112.7553516 -7.2429349),-7.2429349,112.7553516,Masjid,place_of_worship,community,4,,,,,,,,,
POINT (112.7474499 -7.2397123),-7.2397123,112.7474499,Vihara,place_of_worship,community,4,,,,,,,,,
POINT (112.6712229 -7.2843839),-7.2843839,112.6712229,Ahli gigi,dentist,healthcare,1,,,,,,,,,
POINT (112.7775446 -7.2842792),-7.2842792,112.7775446,GEREJA KRISTEN ABDIEL ELYON RAYON GALAXY,place_of_worship,community,4,,,,,,,,,
POINT (112.7652302 -7.2423208),-7.2423208,112.7652302,TK Trisula,kindergarten,education,2,,,,,,,,,
POINT (112.7395668 -7.2721326),-7.2721326,112.7395668,Pasar Kedondong,marketplace,community,4,,,,,,,,,
POINT (112.7356173 -7.2636666),-7.2636666,112.7356173,TK Aisyiyah Bustanul Athfal,kindergarten,education,2,,,,,,,,,
POINT (112.7864599 -7.2493027),-7.2493027,112.7864599,TK Putera Emas,kindergarten,education,2,,,,,,,,,
POINT (112.7777803 -7.2371508),-7.2371508,112.7777803,PAUD Bhakti Pertiwi II,kindergarten,education,2,,,,,,,,,
POINT (112.7567752 -7.2577306),-7.2577306,112.7567752,SD Kristen Buah Sulung,school,education,2,,,,,,,,,
POINT (112.7567726 -7.2577439),-7.2577439,112.7567726,TK Buah Sulung,kindergarten,education,2,,,,,,,,,
POINT (112.737833 -7.2562594),-7.2562594,112.737833,UPTSA Dispenduk dan Catatan Sipil,government,government,3,,,,,,,,100-250,
POINT (112.7372508 -7.2817343),-7.2817343,112.7372508,SD Katholik Karitas 1,school,education,2,,,,,,,,,
POINT (112.7369785 -7.2800655),-7.2800655,112.7369785,SD Kristen Petra 1,school,education,2,Jl. WR. Supratman,Surabaya,60264,,,Mo-Fr 07:00-17:00,,,
POINT (112.7372796 -7.2817882),-7.2817882,112.7372796,TK Katholik Karitas 1,kindergarten,education,2,,,,,,,,,
POINT (112.7367425 -7.2800295),-7.2800295,112.7367425,TK Kristen Petra 1,kindergarten,education,2,,,,,,,,,
POINT (112.7409288 -7.2573574),-7.2573574,112.7409288,Posyandu Genteng,clinic,healthcare,1,,,,,,,,,
POINT (112.768868 -7.3073037),-7.3073037,112.768868,IPH School Playgrup,kindergarten,education,2,,,,,,,,,
POINT (112.7622111 -7.2507665),-7.2507665,112.7622111,PAUD Kartini,kindergarten,education,2,,,,,,,,,
POINT (112.7636938 -7.2520517),-7.2520517,112.7636938,PAUD Melati I,kindergarten,education,2,,,,,,,,,
POINT (112.760249 -7.2501395),-7.2501395,112.760249,Poliklinik Noor Mushola,clinic,healthcare,1,,,,,,,,,
POINT (112.7736956 -7.252788),-7.252788,112.7736956,Posyandu Ceria,clinic,healthcare,1,,,,,,,,,
POINT (112.7604488 -7.2501528),-7.2501528,112.7604488,Rumah Bersalin Noor Mushola,clinic,healthcare,1,,,,,,,,,
POINT (112.7636824 -7.2520896),-7.2520896,112.7636824,TK Gembira,kindergarten,education,2,,,,,,,,,
POINT (112.7731069 -7.2498299),-7.2498299,112.7731069,TK Mekar,kindergarten,education,2,,,,,,,,,
POINT (112.7735286 -7.2518938),-7.2518938,112.7735286,TK Tunas Sakti,kindergarten,education,2,,,,,,,,50-100,
POINT (112.7557466 -7.2469988),-7.2469988,112.7557466,TK Kristen Bathel Surabaya,kindergarten,education,2,,,,,,,,,
POINT (112.6500261 -7.2977777),-7.2977777,112.6500261,Stephen,dentist,healthcare,1,,,,+6289651316867,,,,,
POINT (112.7822079 -7.3049728),-7.3049728,112.7822079,SD Negeri Medokan Semampir 1,school,education,2,,,,,,,,,
POINT (112.7500691 -7.2324705),-7.2324705,112.7500691,MI Ibnu Husein,school,education,2,,,,,,,,,
POINT (112.7502938 -7.2311169),-7.2311169,112.7502938,MTs Ibnu Husein,school,education,2,,,,,,,,,
POINT (112.7521569 -7.2308866),-7.2308866,112.7521569,PAUD Dewi Sartika,kindergarten,education,2,,,,,,,,,
POINT (112.7546835 -7.2295238),-7.2295238,112.7546835,PAUD Mentari,kindergarten,education,2,,,,,,,,,
POINT (112.7546258 -7.229555),-7.229555,112.7546258,TK Budi Laksana Jaya,kindergarten,education,2,,,,,,,,,
POINT (112.7471274 -7.2281115),-7.2281115,112.7471274,,kindergarten,education,2,,,,,,,,,
POINT (112.7725218 -7.228654),-7.228654,112.7725218,PAUD AL- Hikmah,kindergarten,education,2,,,,,,,,,
POINT (112.7823898 -7.223835),-7.223835,112.7823898,Posyandu Tresnojoyo,clinic,healthcare,1,,,,,,,,,
POINT (112.7365239 -7.2774634),-7.2774634,112.7365239,Kantor Kelurahan Dr. Soetomo,government,government,3,,,,,,,,,
POINT (112.7368282 -7.2784328),-7.2784328,112.7368282,Pos PAUD Terpadu MELATI,kindergarten,education,2,,,,,,,,,
POINT (112.7828128 -7.2234133),-7.2234133,112.7828128,"KB, TK dan SD IT Ar-Rahmah",school,education,2,,,,,,,,,
POINT (112.7453886 -7.2495595),-7.2495595,112.7453886,SD/MI Hidayatul Wathon,school,education,2,,,,,,,,,
POINT (112.7330337 -7.2680764),-7.2680764,112.7330337,TK Al Ishlah,kindergarten,education,2,,,,,,,,,
POINT (112.7331879 -7.2664457),-7.2664457,112.7331879,TK Surabayan,kindergarten,education,2,,,,,,,,,
POINT (112.7484499 -7.2425691),-7.2425691,112.7484499,TK Gotong Royong,kindergarten,education,2,,,,,,,,,
POINT (112.7445789 -7.22851),-7.22851,112.7445789,PPT Mutiara Hati,kindergarten,education,2,,,,,,,,,
POINT (112.744542 -7.2285213),-7.2285213,112.744542,Posyandu Kemuning,clinic,healthcare,1,,,,,,,,,
POINT (112.7441682 -7.2302399),-7.2302399,112.7441682,TK Kurnia Sari,kindergarten,education,2,,,,,,,,,
POINT (112.7620354 -7.2183042),-7.2183042,112.7620354,Posyandu,clinic,healthcare,1,,,,,,,,,
POINT (112.7620358 -7.2182852),-7.2182852,112.7620358,TK Handayani,kindergarten,education,2,,,,,,,,,
POINT (112.760987 -7.2381832),-7.2381832,112.760987,TK Ade Erma Suryani,kindergarten,education,2,,,,,,,,,
POINT (112.7601099 -7.2367224),-7.2367224,112.7601099,TK Granting Baru,kindergarten,education,2,,,,,,,,,
POINT (112.6355625 -7.3033523),-7.3033523,112.6355625,PAUD RW 01 Kel. Lakarsantri,kindergarten,education,2,,,,,,,,,
POINT (112.6324254 -7.3010011),-7.3010011,112.6324254,PAUD RW 02 Kel. Lakarsantri,kindergarten,education,2,,,,,,,,,
POINT (112.6351964 -7.2963792),-7.2963792,112.6351964,PAUD RW 03 Kel. Lakarsantri,kindergarten,education,2,,,,,,,,,
POINT (112.6351709 -7.2963932),-7.2963932,112.6351709,Posyandu RW 03 Kel. Lakarsantri,clinic,healthcare,1,,,,,,,,,
POINT (112.6431565 -7.3037028),-7.3037028,112.6431565,PAUD RW 2 Jeruk,kindergarten,education,2,,,,,,,,,
POINT (112.6432075 -7.3036875),-7.3036875,112.6432075,Posyandu Balita RW 2 Kel. Jeruk,clinic,healthcare,1,,,,,,,,,
POINT (112.7570498 -7.2299329),-7.2299329,112.7570498,Melati II,clinic,healthcare,1,,,,,,,,,
POINT (112.7550063 -7.2261378),-7.2261378,112.7550063,Sri Rejeki 1,clinic,healthcare,1,,,,,,,,,
POINT (112.7550552 -7.2261404),-7.2261404,112.7550552,PAUD Cahaya Bunda,kindergarten,education,2,,,,,,,,,
POINT (112.7549782 -7.2261571),-7.2261571,112.7549782,TK Kusuma,kindergarten,education,2,,,,,,,,,
POINT (112.7681951 -7.2194538),-7.2194538,112.7681951,PAUD Permata I,kindergarten,education,2,,,,,,,,,
POINT (112.769442 -7.2208036),-7.2208036,112.769442,Posyandu Flamboyan,clinic,healthcare,1,,,,,,,,,
POINT (112.7645292 -7.2195084),-7.2195084,112.7645292,TK Al-Hidayah,kindergarten,education,2,,,,,,,,,
POINT (112.7682032 -7.219396),-7.219396,112.7682032,TK Reka Budi,kindergarten,education,2,,,,,,,,,
POINT (112.6527109 -7.3043746),-7.3043746,112.6527109,Posyandu RW 03 Kel. Lidah Kulon,clinic,healthcare,1,,,,,,,,,
POINT (112.7460782 -7.2383185),-7.2383185,112.7460782,PAUD Kemuning,kindergarten,education,2,,,,,,,,,
POINT (112.7501696 -7.2370896),-7.2370896,112.7501696,TK Taman Baca Masyarakat,kindergarten,education,2,,,,,,,,,
POINT (112.7592241 -7.215821),-7.215821,112.7592241,PAUD Nusa Indah,kindergarten,education,2,,,,,,,,,
POINT (112.7519248 -7.2232214),-7.2232214,112.7519248,PAUD Fajar Gemilang,kindergarten,education,2,,,,,,,,,
POINT (112.7534506 -7.2233448),-7.2233448,112.7534506,PAUD Kusuma Bunda,kindergarten,education,2,,,,,,,,,
POINT (112.753399 -7.2233282),-7.2233282,112.753399,Posyandu Jaya Indah,clinic,healthcare,1,,,,,,,,,
POINT (112.7535521 -7.2147588),-7.2147588,112.7535521,Posyandu Mekarsari,clinic,healthcare,1,,,,,,,,,
POINT (112.7538066 -7.2207868),-7.2207868,112.7538066,TK Budi Luhur,kindergarten,education,2,,,,,,,,,
POINT (112.7520281 -7.223266),-7.223266,112.7520281,TK Kencana,kindergarten,education,2,,,,,,,,,
POINT (112.7545688 -7.219689),-7.219689,112.7545688,TK Widya Bhakti,kindergarten,education,2,,,,,,,,,
POINT (112.7427652 -7.2248428),-7.2248428,112.7427652,TK Al Azhar,kindergarten,education,2,,,,,,,,,
POINT (112.7427147 -7.2248409),-7.2248409,112.7427147,Posyandu Anak Smilebaby,clinic,healthcare,1,,,,,,,,,
POINT (112.7426843 -7.22484),-7.22484,112.7426843,Posyandu Lansia Udang,clinic,healthcare,1,,,,,,,,,
POINT (112.7485198 -7.2189399),-7.2189399,112.7485198,PAUD Harapan Bunda,kindergarten,education,2,,,,,,,,,
POINT (112.748533 -7.2188914),-7.2188914,112.748533,TK Kuntum Harapan,kindergarten,education,2,,,,,,,,,
POINT (112.7448334 -7.2225748),-7.2225748,112.7448334,PAUD Mekar Sari,kindergarten,education,2,,,,,,,,,
POINT (112.731612 -7.2335476),-7.2335476,112.731612,PAUD Anak Indonesia,kindergarten,education,2,,,,,,,,,
POINT (112.7316144 -7.2362914),-7.2362914,112.7316144,PAUD Kenanga / TK Dewi Sartika,kindergarten,education,2,,,,,,,,250-500,
POINT (112.7348737 -7.2503291),-7.2503291,112.7348737,Posyandu Melati,clinic,healthcare,1,,,,,,,,,
POINT (112.7299109 -7.2532912),-7.2532912,112.7299109,TK Aisyah Bustanul Athfal,kindergarten,education,2,,,,,,,,,
POINT (112.6504357 -7.3174988),-7.3174988,112.6504357,PAUD,kindergarten,education,2,,,,,,,,,
POINT (112.6775359 -7.3278364),-7.3278364,112.6775359,PAUD Terpadu Mitra Pertiwi,kindergarten,education,2,,,,,,,,,
POINT (112.6679018 -7.326997),-7.326997,112.6679018,PAUD Tunas Bangsa,kindergarten,education,2,,,,,,,,,
POINT (112.6679038 -7.3269704),-7.3269704,112.6679038,Posyandu Balita Melati 4 dan Lansia,clinic,healthcare,1,,,,,,,,,
POINT (112.6775352 -7.3277938),-7.3277938,112.6775352,Posyandu Melati 1,clinic,healthcare,1,,,,,,,,,
POINT (112.7224087 -7.2779899),-7.2779899,112.7224087,Posyandu Beringin 5,clinic,healthcare,1,,,,,,,,,
POINT (112.7224027 -7.2779749),-7.2779749,112.7224027,PAUD Kasih Ibu,kindergarten,education,2,,,,,,,,,
POINT (112.7177541 -7.2848706),-7.2848706,112.7177541,PAUD Kasih Bunda,kindergarten,education,2,,,,,,,,,
POINT (112.7259245 -7.2885852),-7.2885852,112.7259245,PAUD Mawar,kindergarten,education,2,,,,,,,,,
POINT (112.7225439 -7.2898653),-7.2898653,112.7225439,PPT Cahaya Mentari,kindergarten,education,2,,,,,,,,,
POINT (112.7285004 -7.2842004),-7.2842004,112.7285004,Posyandu Pagulanstar,clinic,healthcare,1,,,,,,,,,
POINT (112.7225647 -7.2898002),-7.2898002,112.7225647,Posyandu Sartika,clinic,healthcare,1,,,,,,,,,
POINT (112.7264693 -7.2889846),-7.2889846,112.7264693,TK Berita Hidup,kindergarten,education,2,,,,,,,,,
POINT (112.7172746 -7.2745634),-7.2745634,112.7172746,Pos PAUD Terpadu Srikandi Ceria,kindergarten,education,2,,,,,,,,,
POINT (112.7224768 -7.2813588),-7.2813588,112.7224768,PAUD Pelita Kartini,kindergarten,education,2,,,,,,,,,
POINT (112.7223595 -7.2358207),-7.2358207,112.7223595,Posyandu Kelurahan Morokrembangan,clinic,healthcare,1,,,,,,,,,
POINT (112.6533526 -7.3241852),-7.3241852,112.6533526,PAUD Melati,kindergarten,education,2,,,,,,,,,
POINT (112.7253472 -7.2557591),-7.2557591,112.7253472,TK & SD K. Abdullah Ubaid,school,education,2,,,,,,,,,
POINT (112.7185498 -7.2486397),-7.2486397,112.7185498,TK & SD RW X Demak Jaya,school,education,2,,,,,,,,,
POINT (112.7139116 -7.2724868),-7.2724868,112.7139116,PAUD Bunga Bangsa,kindergarten,education,2,,,,,,,,,
POINT (112.7236708 -7.2472592),-7.2472592,112.7236708,PAUD Cahaya,kindergarten,education,2,,,,,,,,,
POINT (112.7248818 -7.2509204),-7.2509204,112.7248818,TK Margodadi,kindergarten,education,2,,,,,,,,,
POINT (112.7285041 -7.2476091),-7.2476091,112.7285041,PAUD Harapan Bangsa,kindergarten,education,2,,,,,,,,,
POINT (112.7285148 -7.2476124),-7.2476124,112.7285148,TK Gundih,kindergarten,education,2,,,,,,,,,
POINT (112.7314081 -7.2419337),-7.2419337,112.7314081,TK Kemayoran Baru,kindergarten,education,2,,,,,,,,,
POINT (112.7272948 -7.251069),-7.251069,112.7272948,PAUD Little Star,kindergarten,education,2,,,,,,,,,
POINT (112.7258081 -7.2750855),-7.2750855,112.7258081,TK Banyu Urip,kindergarten,education,2,,,,,,,,,
POINT (112.7257357 -7.2750343),-7.2750343,112.7257357,PAUD Pertiwi,kindergarten,education,2,,,,,,,,,
POINT (112.7248039 -7.2770778),-7.2770778,112.7248039,PAUD Perintis,kindergarten,education,2,,,,,,,,,
POINT (112.7277564 -7.2441055),-7.2441055,112.7277564,POS PAUD Mandiri,kindergarten,education,2,,,,,,,,,
POINT (112.7222012 -7.2421262),-7.2421262,112.7222012,"RA , TK & SD Tunas Harapan",school,education,2,,,,,,,,,
POINT (112.7170014 -7.2592904),-7.2592904,112.7170014,PAUD Bintang,kindergarten,education,2,,,,,,,,,
POINT (112.7217693 -7.2616763),-7.2616763,112.7217693,PAUD Putra Gembira,kindergarten,education,2,,,,,,,,,
POINT (112.7193063 -7.2571204),-7.2571204,112.7193063,PAUD Tunas Unggul,kindergarten,education,2,,,,,,,,,
POINT (112.7219504 -7.2665784),-7.2665784,112.7219504,Posyandu Lansia,clinic,healthcare,1,,,,,,,,,
POINT (112.7165367 -7.2707937),-7.2707937,112.7165367,TK Tunas Bangsa,kindergarten,education,2,,,,,,,,,
POINT (112.7238963 -7.2738666),-7.2738666,112.7238963,PAUD Ananda,kindergarten,education,2,,,,,,,,,
POINT (112.7137518 -7.2702756),-7.2702756,112.7137518,TK Andayani,kindergarten,education,2,,,,,,,,,
POINT (112.7137203 -7.2702643),-7.2702643,112.7137203,Pos PAUD Terpadu Mawar Ceria,kindergarten,education,2,,,,,,,,,
POINT (112.6545382 -7.2874401),-7.2874401,112.6545382,,dentist,healthcare,1,,,,+62317413411,,,,,
POINT (112.7294551 -7.233656),-7.233656,112.7294551,,pharmacy,healthcare,1,,,,,,,,,
POINT (112.7608875 -7.3235937),-7.3235937,112.7608875,PAUD Mutiara Bunda,kindergarten,education,2,,,,,,,,,
POINT (112.7575915 -7.3225487),-7.3225487,112.7575915,PAUD Tunas Harapan,kindergarten,education,2,,,,,,,,,
POINT (112.7575667 -7.3225926),-7.3225926,112.7575667,Posyandu Lengkuas,clinic,healthcare,1,,,,,,,,,
POINT (112.7206015 -7.2687835),-7.2687835,112.7206015,TK Putera Bangsa,kindergarten,education,2,,,,,,,,,
POINT (112.6554641 -7.2637963),-7.2637963,112.6554641,PAUD Kenanga,kindergarten,education,2,,,,,,,,,
POINT (112.6554682 -7.2637591),-7.2637591,112.6554682,Posyandu Kenanga,clinic,healthcare,1,,,,,,,,,
POINT (112.6289821 -7.2482424),-7.2482424,112.6289821,Posyandu Lansia Harapan Pertiwi,clinic,healthcare,1,,,,,,,,,
POINT (112.6289687 -7.2481925),-7.2481925,112.6289687,PAUD Permata,kindergarten,education,2,,,,,,,,,
POINT (112.7508645 -7.3371454),-7.3371454,112.7508645,Gereja Eleos Surabaya,place_of_worship,community,4,,,,,,,,,
POINT (112.7462573 -7.3363237),-7.3363237,112.7462573,PAUD Dan TK Mawar,kindergarten,education,2,,,,,,,,,
POINT (112.6719081 -7.2594481),-7.2594481,112.6719081,Pasar Sikatan,marketplace,community,4,,,,,,,,,
POINT (112.6108584 -7.2427066),-7.2427066,112.6108584,PAUD Beji Bersemi,kindergarten,education,2,,,,,,,,,
POINT (112.6252035 -7.236609),-7.236609,112.6252035,PAUD Ceria,kindergarten,education,2,,,,,,,,,
POINT (112.6204017 -7.2373497),-7.2373497,112.6204017,PAUD Pelangi,kindergarten,education,2,,,,,,,,,
POINT (112.6204419 -7.237383),-7.237383,112.6204419,Posyandu Gotong Royong I,clinic,healthcare,1,,,,,,,,,
POINT (112.6203802 -7.237383),-7.237383,112.6203802,Posyandu Lansia Anugerah,clinic,healthcare,1,,,,,,,,,
POINT (112.6204231 -7.2374215),-7.2374215,112.6204231,TK Kartini,kindergarten,education,2,,,,,,,,,
POINT (112.6313996 -7.2378039),-7.2378039,112.6313996,PAUD Dahlia,kindergarten,education,2,,,,,,,,,
POINT (112.6857734 -7.2806226),-7.2806226,112.6857734,Edupac,school,education,2,,,,,,,,,
POINT (112.6137223 -7.2317978),-7.2317978,112.6137223,Pos PAUD Terpadu Bhakti Bunda,kindergarten,education,2,,,,,,,,,
POINT (112.6137599 -7.2318005),-7.2318005,112.6137599,Posyandu Lansia Senja Bahagia,clinic,healthcare,1,,,,,,,,,
POINT (112.7213524 -7.2732524),-7.2732524,112.7213524,TK Kartini II,kindergarten,education,2,,,,,,,,,
POINT (112.6152002 -7.2344455),-7.2344455,112.6152002,Poskesdes Benowo Ceria,clinic,healthcare,1,,,,,,,,,
POINT (112.6152169 -7.2343983),-7.2343983,112.6152169,Posyandu Lansia Melati,clinic,healthcare,1,,,,,,,,,
POINT (112.7219675 -7.325543),-7.325543,112.7219675,Posyandu Melati 5,clinic,healthcare,1,,,,,,,,,
POINT (112.6512048 -7.2491643),-7.2491643,112.6512048,TK Al Multazam,kindergarten,education,2,,,,,,,,,
POINT (112.6530981 -7.2852063),-7.2852063,112.6530981,Doktor umum,doctors,healthcare,1,,,,,,,,,
POINT (112.6508316 -7.2850914),-7.2850914,112.6508316,Fatmawati,dentist,healthcare,1,,,,,,,,,
POINT (112.6531085 -7.2852659),-7.2852659,112.6531085,Apotek Grace Farma,pharmacy,healthcare,1,,,,+62 31 7404868,,,,,
POINT (112.6486318 -7.2919178),-7.2919178,112.6486318,English tutoring,school,education,2,,,,+628818018022,,,,,
POINT (112.6543318 -7.2951874),-7.2951874,112.6543318,Praktek dokter umum,doctors,healthcare,1,,,,,,"Mo-Su 05:00-09:00, 17:00-21:00",,,
POINT (112.727517 -7.3377439),-7.3377439,112.727517,PAUD Kuncup Harapan,kindergarten,education,2,,,,,,,,,
POINT (112.6628369 -7.2592698),-7.2592698,112.6628369,Posyandu Balita Mawar Merah,clinic,healthcare,1,,,,,,,,,
POINT (112.6363864 -7.2621463),-7.2621463,112.6363864,Apotek,pharmacy,healthcare,1,,,,,,24/7,,,
POINT (112.646749 -7.198064),-7.198064,112.646749,TK Kartika Sari,kindergarten,education,2,,,,,,,,,
POINT (112.7228767 -7.3119958),-7.3119958,112.7228767,Musholla RSU Bhakti Rahayu,place_of_worship,community,4,,,,,,,,,
POINT (112.7224062 -7.3406871),-7.3406871,112.7224062,Posyandu Palupi,clinic,healthcare,1,,,,,,,,,
POINT (112.7223767 -7.3406785),-7.3406785,112.7223767,Taman Bermain Kuncup Bahagia,kindergarten,education,2,,,,,,,,,
POINT (112.6684213 -7.2631385),-7.2631385,112.6684213,GSJA Elim,place_of_worship,community,4,,,,,,,,,
POINT (112.66855 -7.2630321),-7.2630321,112.66855,GKI Pos Jemaat Manukan,place_of_worship,community,4,,,,,,,,,
POINT (112.6685071 -7.2633088),-7.2633088,112.6685071,Gereja Pentakosta Infonesia Sidang Tandes,place_of_worship,community,4,,,,,,,,,
POINT (112.6685286 -7.2631811),-7.2631811,112.6685286,Gereja Kristen Setia Indonesia,place_of_worship,community,4,,,,,,,,,
POINT (112.6624319 -7.2620715),-7.2620715,112.6624319,Pasar Darurat (Manukan Kulon),marketplace,community,4,,,,,,,,,
POINT (112.6241829 -7.2362054),-7.2362054,112.6241829,Posyandu Harapan Bangsa,clinic,healthcare,1,,,,,,,Posyandu,,
POINT (112.624182 -7.2361724),-7.2361724,112.624182,PPT Mekar Indah,kindergarten,education,2,,,,,,,,,
POINT (112.6108218 -7.2428127),-7.2428127,112.6108218,Posyandu RW IV Pakal,clinic,healthcare,1,,,,,,,,,
POINT (112.7961373 -7.3247345),-7.3247345,112.7961373,Madrasah Tsanawiyah Negeri 3 Surabaya,school,education,2,,,,,,,,,
POINT (112.7417877 -7.33758),-7.33758,112.7417877,TK Hidayatullah,kindergarten,education,2,,,,,,,,,
POINT (112.7363945 -7.3403897),-7.3403897,112.7363945,Puskesmas siwalankerto,clinic,healthcare,1,,,,,,,,,
POINT (112.6546471 -7.2949371),-7.2949371,112.6546471,British education center,school,education,2,,,,+62317422630,,,,,
POINT (112.7683067 -7.309533),-7.309533,112.7683067,GBI Blessing Center,place_of_worship,community,4,Jalan Panjang Jiwo Permai,,,,,,,,
POINT (112.7051431 -7.2757952),-7.2757952,112.7051431,Sakamoto Kupang Jaya,school,education,2,Raya Kupang Jaya Kav. 10/1AM Surabaya,,60189,+6281938029374,,Mo-Fr 00:00-19:00; Sa 09:00-17:00,,,
POINT (112.6554456 -7.2874613),-7.2874613,112.6554456,Sukses,pharmacy,healthcare,1,,,,,,,,,
POINT (112.6738234 -7.2889798),-7.2889798,112.6738234,Al-Ghuroba',place_of_worship,community,4,,,,,,,,,
POINT (112.7397892 -7.2425279),-7.2425279,112.7397892,SPBU Pertamina Stasiun Kota 5460144,fuel,transport,3,,,,,,,PT Pertamina,,
POINT (112.7738642 -7.2585852),-7.2585852,112.7738642,SPBU Pertamina Ploso Baru Sidoarjo,fuel,transport,3,,,,,,,PT Pertamina,,
POINT (112.6889733 -7.2927502),-7.2927502,112.6889733,Kelt,school,education,2,,,,,,,,,
POINT (112.7409149 -7.2573817),-7.2573817,112.7409149,TK Kartini Genteng,kindergarten,education,2,,,,,,,,,
POINT (112.6460184 -7.2789331),-7.2789331,112.6460184,Khay ming Montessori,school,education,2,,,,,http://www.khayming.com/,Mo-Fr 08:00-16:00; Sa 08:00-12:00,,,
POINT (112.6693868 -7.2641376),-7.2641376,112.6693868,TK Kurnia Rachmad,kindergarten,education,2,,,,,,,,,
POINT (112.6548543 -7.2914791),-7.2914791,112.6548543,Learn chenese,school,education,2,,,,+62 031 83637770,,,,,
POINT (112.7300092 -7.2239242),-7.2239242,112.7300092,SMP NEGERI 7 SURABAYA,school,education,2,Jalan Tanjung Sadari,,,,,,,,
POINT (112.7289865 -7.2348569),-7.2348569,112.7289865,Balai RW 2 Kelurahan Kemayoran,government,government,3,Krembangan Bhakti,,,,,,,,
POINT (112.7312495 -7.2342405),-7.2342405,112.7312495,GPIB PNIEL Surabaya,place_of_worship,community,4,,,,0313521600,,Tu-Sa 09:00-17:00; Su 06:00-20:00,,,
POINT (112.7269531 -7.2583922),-7.2583922,112.7269531,Pengadilan Negeri Surabaya,courthouse,government,3,Jalan Raya Arjuna,,,,,Mo-Sa 09:00-16:00,,,
POINT (112.7489868 -7.2698348),-7.2698348,112.7489868,Pengadilan Tinggi Jawa Timur,courthouse,government,3,Jalan Sumatera,,,,,Mo-Sa 09:00-16:00,,,
POINT (112.7405982 -7.2099859),-7.2099859,112.7405982,GPIB GALILEA Surabaya,place_of_worship,community,4,,,,,,,,,
POINT (112.6580057 -7.2822742),-7.2822742,112.6580057,,police,emergency,1,,,,,,,,,
POINT (112.7294967 -7.2393533),-7.2393533,112.7294967,Apotek Siaga,pharmacy,healthcare,1,Jalan Krembangan Baru,,,,,,,,
POINT (112.6499633 -7.3014549),-7.3014549,112.6499633,GBI Family Blessing,place_of_worship,community,4,,,,+6281358142118,https://www.gbifamilyblessing.org/,,,,
POINT (112.6635997 -7.3151635),-7.3151635,112.6635997,Notredame Adventure park,community_centre,community,4,,,,,,,,,
POINT (112.6564141 -7.2847798),-7.2847798,112.6564141,Glory,pharmacy,healthcare,1,,,,,,,,,
POINT (112.6762888 -7.2928675),-7.2928675,112.6762888,Ivy,school,education,2,,,,,http://ivyschool.sch.id,,,,
POINT (112.6791155 -7.287495),-7.287495,112.6791155,Gigi Sehat,dentist,healthcare,1,,,,+6285100728639,http://gigisehatdental.net/,"Mo-Fr 08:00-13:30, 15:00-21:00; Sa 15:00-18:00",,,
POINT (112.6791875 -7.2874209),-7.2874209,112.6791875,,clinic,healthcare,1,,,,,,,,,
POINT (112.6551111 -7.2858523),-7.2858523,112.6551111,Gki citraland,place_of_worship,community,4,,,,,,,,,
POINT (112.6481727 -7.2895712),-7.2895712,112.6481727,Ezmo,dentist,healthcare,1,,,,+6282228888717,https://ezmodental.com/,,,,
POINT (112.6757492 -7.2915588),-7.2915588,112.6757492,Shell,fuel,transport,3,,,,,,,,,
POINT (112.7588868 -7.2784744),-7.2784744,112.7588868,Apotek Meliana,pharmacy,healthcare,1,,,,,,,,,
POINT (112.7778929 -7.2808796),-7.2808796,112.7778929,Kardia Medika,pharmacy,healthcare,1,,,,,,,,,
POINT (112.7779573 -7.2808876),-7.2808876,112.7779573,Surabaya Heart & Vascular Clinic,clinic,healthcare,1,,,,,,,,,
POINT (112.7642566 -7.2800335),-7.2800335,112.7642566,LBC Manyar Kertoarjo,clinic,healthcare,1,,,,,,,,,
POINT (112.7750632 -7.2801133),-7.2801133,112.7750632,Biotest,clinic,healthcare,1,,,,,,,,,
POINT (112.6077531 -7.2263411),-7.2263411,112.6077531,,place_of_worship,community,4,,,,,,,,,
POINT (112.776598 -7.2873131),-7.2873131,112.776598,Masjid Universitas Narotama,place_of_worship,community,4,Jl. Arif Rahman Hakim,"Klampis Ngasem, Sukolilo, Surabaya",60117,,,,,,
POINT (112.7635541 -7.2262189),-7.2262189,112.7635541,Nurul Huda Mosque,place_of_worship,community,4,Jalan Randu Timur Lebar,Surabaya,,,,,,,
POINT (112.7711764 -7.2430511),-7.2430511,112.7711764,Masjid An-Najah,place_of_worship,community,4,Jalan Gading I,Surabaya,,,,,,,
POINT (112.7698611 -7.2436653),-7.2436653,112.7698611,Gereja Cornelius,place_of_worship,community,4,Jalan Gading II,Surabaya,,,,,,,
POINT (112.7776455 -7.2450179),-7.2450179,112.7776455,Gereja Kristen Indonesia,place_of_worship,community,4,Jalan Lebak Jaya III,Surabaya,,,,,,,
POINT (112.7905082 -7.2380385),-7.2380385,112.7905082,Pura Segara,place_of_worship,community,4,Jalan Memet Sastrowiryo,Surabaya,60121,,,,,,
POINT (112.7436015 -7.2221849),-7.2221849,112.7436015,Masjid  Riyadhul Muttaqin,place_of_worship,community,4,Jl. Hangtuah 3,Surabaya,60155,,,,,,
POINT (112.7698137 -7.2304662),-7.2304662,112.7698137,Masjid Miftahul Jabbar,place_of_worship,community,4,Jalan Tanah Merah I,Surabaya,,,,,,,
POINT (112.7727889 -7.2199129),-7.2199129,112.7727889,Masjid Attinah,place_of_worship,community,4,Jalan Kedinding Lor Gang Masjid,Surabaya,,,,,,,
POINT (112.7797039 -7.2236425),-7.2236425,112.7797039,Masjid An Nahar,place_of_worship,community,4,Jalan Kedinding Tengah  I,Surabaya,,,,,,,
POINT (112.7099192 -7.3164404),-7.3164404,112.7099192,Polisi Sektor Karang Pilang,police,emergency,1,Jalan Raya Mastrip Kedurus,Surabaya,60223,031-7663528,,Mo-Fr 08:00-17:00,,,
POINT (112.6311821 -7.3029984),-7.3029984,112.6311821,Pasar Surya Lakarsantri,marketplace,community,4,Jl. Lakarsantri,Surabaya,60211,,,Mo-Su 06:00-16:00,Pemerintah Kota Surabaya,,
POINT (112.715416 -7.2523872),-7.2523872,112.715416,Pasar Asemrowo,marketplace,community,4,Jalan Asemrowo,Surabaya,,,,"Setiap Hari, Pukul 05.00-13.00",Pasar Surya,,
POINT (112.7628685 -7.305102),-7.305102,112.7628685,Pondok Pesantren Darussaadah,school,education,2,"Jl. Jangkungan I No.9, Ngenden Jangkungan, Sukolilo, Kota SBY, Jawa Timur",Surabaya,60118,,,,,,
POINT (112.7375946 -7.2561789),-7.2561789,112.7375946,Dinas Perdagangan Kota Surabaya,government,government,3,Jalan Tunjungan,Surabaya,60275,+62 31 99242422,http://disperdagin.surabaya.go.id/,Mo-Sa 08:00-05:00,,,
POINT (112.6124039 -7.2322653),-7.2322653,112.6124039,Kepolisian Sektor Pakal,police,emergency,1,Jalan Raya Kauman Baru,SURABAYA,60195,,,Mo-Fr 08:00-17:00,,,
POINT (112.7628127 -7.2617071),-7.2617071,112.7628127,Pondok Pesantren Miftachus Sunnah,school,education,2,"Jl. Kedung Tarukan No.100, Pacar Kembang,",Tambak Sari Surabaya,60285,(031) 5995181,,,,,
POINT (112.7612815 -7.2346461),-7.2346461,112.7612815,Masjid Al Amin,place_of_worship,community,4,"Jalan Platuk Gg. Langgar RT. 001/RW. 002, Sidotopo Wetan, Kenjeran","Kota Surabaya, Jawa Timur",60128,,,,,100-250,
POINT (112.7737337 -7.2330286),-7.2330286,112.7737337,Masjid Al Faroch,place_of_worship,community,4,"Jalan Bulak Rukem Timur 2, Bulak","Surabaya, Jatimur",60124,,,,,,
POINT (112.6991972 -7.2689135),-7.2689135,112.6991972,Kepolisian Sektor Sukomanunggal,police,emergency,1,Jalan Sukomanunggal Jaya VIII,Surabaya,60281,,,Mo-Fr 08:00-17:00,,,
POINT (112.6840269 -7.2765179),-7.2765179,112.6840269,Kepolisian Sektor Tandes,police,emergency,1,Jalan Simpang Darmo Permai Utara,Surabaya,60226,,,Mo-Fr 08:00-17:00,,,
POINT (112.746524 -7.2383544),-7.2383544,112.746524,Kepolisian Sektor Simokerto,police,emergency,1,Jalan Kapasan Lor,Surabaya,60145,+62 31 3765505,,Mo-Fr 08:00-17:00,,,
POINT (112.7483715 -7.2556109),-7.2556109,112.7483715,Kepolisian Sektor Genteng,police,emergency,1,Jalan Ambengan,Surabaya,60179,+62 31 5341054,gentengpolsek@gmail.com,Mo-Fr 08:00-17:00,,,
POINT (112.7711928 -7.3383883),-7.3383883,112.7711928,POLSEK RUNGKUT,police,emergency,1,JALAN Kyai Abdul Karim,SURABAYA,,,,,,,
POINT (112.7553803 -7.2574505),-7.2574505,112.7553803,POLSEK TAMBAKSARI,police,emergency,1,JALAN MENDUT,SURABAYA,60131,,,,,,
POINT (112.7562671 -7.3304306),-7.3304306,112.7562671,POLSEK TENGGILIS MEJOYO,police,emergency,1,JALAN RUMGKUT INDUSTRI,SURABAYA,60291,,,,,,
POINT (112.7653501 -7.2317762),-7.2317762,112.7653501,Masjid At Taqwa,place_of_worship,community,4,"Jalan Randu Timur, Tanah Kali Kedinding, Kenjeran","Kota Surabaya, Jawa Timur",60128,,,,,100-250,
POINT (112.764937 -7.2315241),-7.2315241,112.764937,Masjid Subulussalam,place_of_worship,community,4,"Jalan Platuk, Sidotopo Wetan, Kenjeran","Kota Surabaya, Jawa Timur",60128,,,,,,
POINT (112.7766045 -7.2113849),-7.2113849,112.7766045,Masjid Nurul Huda,place_of_worship,community,4,Jalan Tambak Wedi Masjid Gang I,"Surabaya, Jawa Timur",60126,031-51501706,,,,100+,
POINT (112.7726992 -7.2100305),-7.2100305,112.7726992,Masjid Al Mukhlis,place_of_worship,community,4,Tambak Wedi Barat Gang Suroso I,"Surabaya, Jawa Timur",60126,,,,,,
POINT (112.7684517 -7.2287338),-7.2287338,112.7684517,Masjid Al Ikhlas,place_of_worship,community,4,Jalan Tanah Merah IV Gang Langgar,"Surabaya, Jawa Timur",60129,,,,,,
POINT (112.7702136 -7.2285791),-7.2285791,112.7702136,Masjid Nurul Hidayah,place_of_worship,community,4,Jalan Tanah Merah Indah,"Surabaya, Jawa Timur",60129,0813-3180-1891,,,,,
POINT (112.7775935 -7.2875402),-7.2875402,112.7775935,masjid an-nur,place_of_worship,community,4,Jalan Klampis Aji Tengah II,"Klampis Ngasem, Sukolilo, Surabaya, East Java",60117,,,,,,
POINT (112.7745653 -7.2859372),-7.2859372,112.7745653,masjid achmad,place_of_worship,community,4,Jalan Klampis Ngasem,"Klampis Ngasem, Sukolilo, Surabaya, East Java",60117,,,,,,
POINT (112.7730675 -7.2898399),-7.2898399,112.7730675,Masjid haqqul yaqien,place_of_worship,community,4,Jalan Menur Pumpungan,"Klampis Ngasem, Sukolilo, Surabaya, East Java",60117,,,,,,
POINT (112.7830748 -7.2891042),-7.2891042,112.7830748,masjid assakienah,place_of_worship,community,4,Jalan Arief Rahman Hakim,"Keputih, Sukolilo, Surabaya, East Java",601117,,,,,,
POINT (112.7362213 -7.2275354),-7.2275354,112.7362213,Masjid Sholihin,place_of_worship,community,4,Jalan Muteran V,Surabaya,60163,,,,,,
POINT (112.7332236 -7.2301152),-7.2301152,112.7332236,Masjid Nurul Falah,place_of_worship,community,4,Jalan Tambak Gringsing II,"Krembangan, East Java, Surabaya",60163,,,,,,
POINT (112.7360795 -7.2304286),-7.2304286,112.7360795,Masjid Salman,place_of_worship,community,4,Jalan Kelasi,Krembangan Utara,60175,,,,,,
POINT (112.7300246 -7.2332645),-7.2332645,112.7300246,Gereja Pantekosta Indonesia,place_of_worship,community,4,Jalan Rajawali,Surabaya,60164,,,,,,
POINT (112.7423278 -7.2317656),-7.2317656,112.7423278,Masjid Ampel,place_of_worship,community,4,Jalan Gubah Kidul,"Ampel, Semampir, Kota SBY, Jawa Timur, Indonesia",60151,,,,,,
POINT (112.7323178 -7.2309871),-7.2309871,112.7323178,Masjid Dakwah Pemuda,place_of_worship,community,4,Jalan Sampoerna,"Krembangan, East Java, Surabaya",60163,,,,,,
POINT (112.7602304 -7.2889791),-7.2889791,112.7602304,Gereja Katolik Santa Maria Tak Bercela (SMTB),place_of_worship,community,4,Jalan Ngagel Madya,"Bratajaya, Gubeng, Surabaya",60264,(031) 5040919,,,,,
POINT (112.7741316 -7.2181029),-7.2181029,112.7741316,Masjid Muhajirin,place_of_worship,community,4,Jalan Tambak Wedi Baru,"Surabaya, Jawa TImur",60126,,,,,,
POINT (112.7628675 -7.2206283),-7.2206283,112.7628675,Masjid Al Muhajirin,place_of_worship,community,4,Jalan Bulak Banteng Wetan VIII,"Surabaya, Jawa Timur",60128,,,,,,
POINT (112.7636967 -7.2098461),-7.2098461,112.7636967,Masjid Al Hikmah,place_of_worship,community,4,Jalan Naga Banda VII,"Surabaya, Jawa Timur",60128,,,,,250,
POINT (112.7746458 -7.2163556),-7.2163556,112.7746458,Masjid Baitul Kholiq,place_of_worship,community,4,Jalan Tambak Wedi Baru Gang V,"Surabaya, Jawa TImur",60126,,,,,,mosque
POINT (112.7828274 -7.223422),-7.223422,112.7828274,Masjid Ar Rahman,place_of_worship,community,4,Jalan Kedinding Lor Gang Manggis,"Surabaya, Jawa Timur",60129,(031) 51500473,,,,,mosque
POINT (112.7734243 -7.2249265),-7.2249265,112.7734243,Masjid Al Furqon,place_of_worship,community,4,Jalan Kedinding Tengah II,"Surabaya, Jawa Timur",60129,,,,,,mosque
POINT (112.772666 -7.2286981),-7.2286981,112.772666,Masjid Al Fattah,place_of_worship,community,4,Jalan Kalilom Lor III,"Surabaya, Jawa Timur",60129,,,,,,mosque
POINT (112.7745973 -7.2295044),-7.2295044,112.7745973,Masjid As Sidiq,place_of_worship,community,4,Jalan Kedung Cowek,"Surabaya, Jawa Timur",60129,,,,,,mosque
POINT (112.7760309 -7.2289715),-7.2289715,112.7760309,Masjid Al Amanah,place_of_worship,community,4,Jalan Kalilom Lor Indah,"Surabaya, Jawa Timur",60129,,,,,,mosque
POINT (112.765145 -7.2324978),-7.2324978,112.765145,Gereja Katolik Ratu Pecinta Damai,place_of_worship,community,4,Jalan Pogot Baru,"Kota Surabaya, Jawa Timur",60129,(031) 371-1544,,,,,
POINT (112.764436 -7.2307497),-7.2307497,112.764436,Gereja Cahaya Kasih,place_of_worship,community,4,Jalan Randu,"Kota Surabaya, Jawa Timur",60128,(031) 3716232,,,,,
POINT (112.7707643 -7.2275218),-7.2275218,112.7707643,Gereja Immanuel,place_of_worship,community,4,Jalan Tanah Merah Indah,"Surabaya, Jawa Timur",60129,0812-3783-1760,,,,,church
POINT (112.7680385 -7.2311015),-7.2311015,112.7680385,Masjid Umar,place_of_worship,community,4,Jalan Tanah Merah II,"Kota Surabaya, Jawa Timur",60129,,,,H. Ahmad Ghozali,,mosque
POINT (112.7583265 -7.225839),-7.225839,112.7583265,Masjid Jadidah,place_of_worship,community,4,Jalan Tenggumung Baru,"Kota Surabaya, Jawa Timur",,,,,H. M Salim,,mosque
POINT (112.7360039 -7.2491616),-7.2491616,112.7360039,Greja Kristen Jawi Wetan (GKJW) Surabaya,place_of_worship,community,4,Jalan Bubutan,"Surabaya Pusat, Jawa Timur, Indonesia",60174,(031) 5023302,,,,,
POINT (112.7651434 -7.2772709),-7.2772709,112.7651434,Huria Kristen Batak Protestan,place_of_worship,community,4,"Jalan Manyar Kertoarjo XIII No.33, RT.000/RW.00, Mojo, Gubeng, Kota SBY,","Manyar Sabrangan, Surabaya",60285,,,,,,
POINT (112.7643622 -7.2771589),-7.2771589,112.7643622,Masjid Baitul Muttaqin,place_of_worship,community,4,Jalan Sukodami I,"Mojo, Gubeng, Surabaya",60285,,,,,,
POINT (112.763979 -7.2762097),-7.2762097,112.763979,Masjid Al Anshor,place_of_worship,community,4,Jalan Kalidami IV,"Mojo, Gubeng, Surabaya",60285,,,,,,
POINT (112.7653979 -7.2761645),-7.2761645,112.7653979,Masjid Baitut Taubah,place_of_worship,community,4,Jalan Kalidami VII,"Mojo, Gubeng, Surabaya",60285,,,,,,
POINT (112.7669898 -7.2763507),-7.2763507,112.7669898,Musholah An - Nur,place_of_worship,community,4,Jalan Jojoran Baru II,"Mojo, Gubeng, Surabaya",60285,,,,,,
POINT (112.7671373 -7.276509),-7.276509,112.7671373,Musholah Al - jabar,place_of_worship,community,4,Jalan Jojoran Baru II,"Mojo, Gubeng, Surabaya",60285,,,,,,
POINT (112.7677528 -7.2769893),-7.2769893,112.7677528,Masjid Baitul Muttaqien,place_of_worship,community,4,Jalan Jojoran IV,"Mojo, Gubeng, Surabaya",60285,,,,,,
POINT (112.7686554 -7.2750963),-7.2750963,112.7686554,Masjid Istiqoomah,place_of_worship,community,4,Jalan Jojoran III D,"Mojo, Gubeng, Surabaya",60285,,,,,,
POINT (112.7408632 -7.2422439),-7.2422439,112.7408632,Masjid Nurul Ihsan,place_of_worship,community,4,Jalan Stasiun Kota,"Bongkaran, Pabean Cantian, Kota SBY, Jawa Timur, Indonesia",60161,,,,,,mosque
POINT (112.7496781 -7.285283),-7.285283,112.7496781,masjid jami al jihad,place_of_worship,community,4,Jalan Kalibokor II,"Pucang Sewu, Surabaya jawa timur indonesia",60283,,,,,,
POINT (112.7720591 -7.2757854),-7.2757854,112.7720591,GBIS Taman Getsemani,place_of_worship,community,4,Jalan Dharmahusada Indah Barat V,"Mojo, Gubeng, Surabaya",60285,,,,,,
POINT (112.7759703 -7.2766592),-7.2766592,112.7759703,Gereja Orthodox Paroki Js. Iona Manchuria (Rocor),place_of_worship,community,4,Jalan Dharmahusada Indah Selatan VII,"Mulyorejo, Surabaya",60115,,,,,,
POINT (112.7764558 -7.2779789),-7.2779789,112.7764558,Musholla Darussalam,place_of_worship,community,4,Jalan Manyar Tegal,"Mulyorejo, Surabaya",60115,,,,,,
POINT (112.7789691 -7.277806),-7.277806,112.7789691,Masjid Nur Hidayah,place_of_worship,community,4,Jalan Manyar Tegal,Mulyorejo,60115,,,,,,
POINT (112.7805623 -7.2809987),-7.2809987,112.7805623,Masjid Al-Qoni,place_of_worship,community,4,Jalan Raya Kertajaya Indah,"Manyar Sabrangan, Mulyorejo, Kota Surabaya, Jawa Timur, Indonesia",60116,,,,,,
POINT (112.7797869 -7.2560496),-7.2560496,112.7797869,Masjid Salamul Ma'Ruf,place_of_worship,community,4,Jl. Kalijudan XI,Kel. Kaliyudan Kec. Mulyorejo Kota Surabaya Jawa Timu,60114,,,,,,
POINT (112.7870399 -7.2608826),-7.2608826,112.7870399,Masjid Salman Alfarisi,place_of_worship,community,4,Jalan Sutorejo,Surabaya,60115,,,,,,
POINT (112.7790849 -7.2929509),-7.2929509,112.7790849,gereja wisma mukti,place_of_worship,community,4,Jl. Klampis Anom XIII,"Klampis Ngasem, Sukolilo, Kota SBY, Jawa Timur 60117",,,,,,,
POINT (112.8003664 -7.267916),-7.267916,112.8003664,Masjid Syamsul Falah,place_of_worship,community,4,Jalan Bhaskara III,Surabaya,60112,,,,,,
POINT (112.7348305 -7.2284506),-7.2284506,112.7348305,Masjid Nur,place_of_worship,community,4,Jalan Dapuan Baru IV,"Krembangan, East Java, Surabaya",60163,,,,,,mosque
POINT (112.7699773 -7.2853118),-7.2853118,112.7699773,gereja kristen indonesia manyar,place_of_worship,community,4,Jl. Manyar Tirtoasri VII,"Klampis Ngasem, Sukolilo, Kota SBY, Jawa Timur",60118,,,,,,
POINT (112.7776755 -7.3063612),-7.3063612,112.7776755,Gereja Bethany Indonesia Tanjung Sari,place_of_worship,community,4,Jalan Semampir Barat Gang IV,"Semolowaru, Sukolilo, Surabaya, East Java",60119,,,,,,
POINT (112.7636814 -7.2822481),-7.2822481,112.7636814,Masjid Al Anwar,place_of_worship,community,4,Jalan Manyar Dukuh,Surabaya,60116,,,,,,
POINT (112.7785982 -7.3049924),-7.3049924,112.7785982,Masjid Sholihul Amin,place_of_worship,community,4,Jalan Medokan Semampir Gang Masjid,"Medokan Semampir, Sukolilo, Surabaya",60119,,,,,,
POINT (112.7735354 -7.2781217),-7.2781217,112.7735354,gereja reformed injil indonesia,place_of_worship,community,4,Jl. Kertajaya Indah II,"Jl. Kertajaya Ind Manyar Sabrangan, Mulyorejo, Kota SBY, Jawa Timur",60116,,,,,,
POINT (112.7666278 -7.2829651),-7.2829651,112.7666278,Masjid Al-Hadits,place_of_worship,community,4,Jalan Manyar Sabrangan IX,"Mojo, Gubeng, Kota SBY, Jawa Timur, Indonesia",60116,,,,,,
POINT (112.7651179 -7.2772738),-7.2772738,112.7651179,gereja kristen batak protestan,place_of_worship,community,4,jalan Manyar Kertoarjo XIII,"Mojo, Gubeng, Surabayaalan Manyar Kertoarjo XIII No.Mojo, Gubeng, Kota SBY, Jawa Timur",,,,,,,
POINT (112.7610443 -7.2776853),-7.2776853,112.7610443,gereja torsina,place_of_worship,community,4,Jl. Gubeng Kertajaya XIII D,"No 21, Jl. Gubeng K Airlangga, Gubeng, Kota SBY, Jawa Timur",60286,,,,,,
POINT (112.7929673 -7.2753669),-7.2753669,112.7929673,Masjid Ahmad Yani,place_of_worship,community,4,Jalan Tegal Mulyorejo Baru,Surabaya,60115,,,,,,
POINT (112.7622843 -7.2742677),-7.2742677,112.7622843,gereja bethel indonesia,place_of_worship,community,4,Jl. Karang Menjangan,"JAirlangga, Gubeng, Kota SBY, Jawa Timur",60286,,,,,,
POINT (112.7329397 -7.2138311),-7.2138311,112.7329397,Yayasan Masjid Mujahidin,place_of_worship,community,4,Jalan Teluk Aru,"Kota Surabaya, jawa Timur",60165,,,,,,mosque
POINT (112.74967 -7.2852108),-7.2852108,112.74967,Masjid Jami al hijad,place_of_worship,community,4,Jalan Kalibokor II,"Pucang Sewu, Surabaya jawa timur indonesia",60283,,,,,,
POINT (112.7719949 -7.2728339),-7.2728339,112.7719949,Gereja Kemah Injil Indonesia Surabaya,place_of_worship,community,4,Jl. Dharmahusada Indah Barat III,"Mojo, Gubeng, Kota SBY, Jawa Timur",60285,,,,,,
POINT (112.7538 -7.2781841),-7.2781841,112.7538,gereja imanat rasani,place_of_worship,community,4,Jl. Kertajaya,"Jl. KertaAirlangga, Gubeng, Kota SBY, Jawa Timur",60286,,,,,,
POINT (112.7525564 -7.2770261),-7.2770261,112.7525564,Masjid Jami'ul Fawaid,place_of_worship,community,4,Jalan Gubeng Kertajaya V Raya,"GubeAirlangga, Gubeng, Kota SBY, Jawa Timur",60286,,,,,,
POINT (112.7793303 -7.2652604),-7.2652604,112.7793303,Masjid Machfudz,place_of_worship,community,4,Jl. Mulyorejo Tengah,Surabaya,60115,,,,,,
POINT (112.7542175 -7.2770315),-7.2770315,112.7542175,Gereja Allah adalah Kasih,place_of_worship,community,4,JL. Gubeng Kertajaya V A,"Airlangga, Gubeng, Surabaya City, East Java",60286,,,,,,
POINT (112.7967355 -7.2737256),-7.2737256,112.7967355,Masjid Mayithoh,place_of_worship,community,4,Jl. Wisma Permai I,"Mulyorejo, Surabaya, East Java",60115,,,,,,
POINT (112.7921543 -7.2708814),-7.2708814,112.7921543,Gereja Bethany indonesia,place_of_worship,community,4,Jalan Dharmahusada Mas XII,,,,,,,,
POINT (112.7906 -7.2657361),-7.2657361,112.7906,Masjid Al Iman,place_of_worship,community,4,Jl Sutorejo,Surabaya,60113,,,,,,
POINT (112.7929609 -7.2763938),-7.2763938,112.7929609,Mushola An-Nahl,place_of_worship,community,4,Jalan Raya ITS,"Keputih, Surabaya, East Java",60117,,,,,,
POINT (112.7954339 -7.2782775),-7.2782775,112.7954339,Musholah dewa ruci,place_of_worship,community,4,"Keputih, Sukolilo, Kota SBY, Jawa Timur",Surabaya,60111,,,,,,
POINT (112.7943798 -7.2780035),-7.2780035,112.7943798,Masjid Bahrul Ulum PPNS,place_of_worship,community,4,"Kampus ITS, Jl. Teknik Kimia, Keputih, Sukolilo, Kota SBY,",Surabaya,60117,,,,,,
POINT (112.7441945 -7.2462107),-7.2462107,112.7441945,Masjid Miftahus Sholeh,place_of_worship,community,4,Jalan Semut IV,"Kota Surabaya, JawaTimur",60161,0812-3316-0315,,,,,
POINT (112.730194 -7.2565354),-7.2565354,112.730194,SMK NEGERI 4 SURABAYA,school,education,2,Jalan Kranggan,"Sawahan, Surabaya",60251,,https://www.smkn4sby.sch.id/,,Mr.Klobot,,
POINT (112.7672664 -7.2557363),-7.2557363,112.7672664,Bustanul Huda,place_of_worship,community,4,,,,,,,,,
POINT (112.7359554 -7.3244592),-7.3244592,112.7359554,Masjid Al-Jihad Surabaya,place_of_worship,community,4,Jalan Jemur Wonosari Gang Sekolahan,,60237,,,24/7,,,
POINT (112.7502992 -7.320575),-7.320575,112.7502992,Godwins School,school,education,2,Raya Tenggilis,"Kendangsari, Tenggilis Mejoyo, Surabaya, East Java",60292,+62318416485,,,,,
POINT (112.7631941 -7.2784139),-7.2784139,112.7631941,Dinas Kebersihan dan Ruang Terbuka Hijau Kota Surabaya,government,government,3,,,,,,,,,
POINT (112.746058 -7.2775972),-7.2775972,112.746058,Apotik Bawean,pharmacy,healthcare,1,,,,,,,,,
POINT (112.7483232 -7.2770875),-7.2770875,112.7483232,J&T,post_office,government,3,,,,,,,,,
POINT (112.7472246 -7.2654852),-7.2654852,112.7472246,BP,fuel,transport,3,,,,,,24/7,BP-AKR,,
POINT (112.6526241 -7.300424),-7.300424,112.6526241,Waft Lab,community_centre,community,4,Jalan Binangun I,Surabaya,60213,,https://waft-lab.com,,,,
POINT (112.745626 -7.2923853),-7.2923853,112.745626,SUBstitute Makerspace,community_centre,community,4,Jalan Ratna,"Ngagel, Wonokromo, Surabaya",60246,+62 878 5547 6158,https://substitutemakerspace.com,Mo-Su 09:00-21:00,,,
POINT (112.7168697 -7.2604078),-7.2604078,112.7168697,Pasar Pacuan Kuda,marketplace,community,4,Jalan Pacuan Kuda,,,,,Mo-Su 05:00-09:00,,,
POINT (112.7399504 -7.3210938),-7.3210938,112.7399504,Apotek JeS 8,pharmacy,healthcare,1,Jalan Jemursari VIII,Surabaya,60237,,,Mo-Sa 09:00-18:00,,,
POINT (112.7419487 -7.3227778),-7.3227778,112.7419487,Apotek Setia,pharmacy,healthcare,1,Jalan Raya Jemursari,Surabaya,60237,,,Mo-Su 07:30-21:30,,,
POINT (112.6763928 -7.2883425),-7.2883425,112.6763928,Guardian,pharmacy,healthcare,1,,,,,,,,,
POINT (112.6756981 -7.2900186),-7.2900186,112.6756981,Century,pharmacy,healthcare,1,,,,,,,,,
POINT (112.7897485 -7.3143809),-7.3143809,112.7897485,Gereja Kristus Tuhan,place_of_worship,community,4,,,,,,,,,
POINT (112.7585748 -7.2910291),-7.2910291,112.7585748,GBI Ngagel Madya,place_of_worship,community,4,,,,,,,,,
POINT (112.7397206 -7.2419901),-7.2419901,112.7397206,Pasar Bibis,community_centre,community,4,Jalan Waspada,,,,,Mo-Su 08:00-17:00,,,
POINT (112.7346335 -7.2210357),-7.2210357,112.7346335,Stasiun Kalimas,bus_station,transport,3,,,,,,,,,
POINT (112.7148342 -7.2454783),-7.2454783,112.7148342,,marketplace,community,4,Jalan Dupak Rukun,,,,,Mo-Su 07:00-12:00,,,
POINT (112.744851 -7.2884764),-7.2884764,112.744851,C Courier,post_office,government,3,Jalan Ngagel,"Ngagel, Wonokromo, Kota SBY, Jawa Timur, Indonesia",60246,,,24/7,,,
POINT (112.7575773 -7.3060416),-7.3060416,112.7575773,Kantor Satuan Polisi Pamong Praja Jawa Timur,government,government,3,,,,,,,,100-250,
POINT (112.7569137 -7.3059591),-7.3059591,112.7569137,Dinas Pendidikan Provinsi Jawa Timur,government,government,3,,,,,,,,250-500,
POINT (112.749341 -7.2782316),-7.2782316,112.749341,Flores 15,library,education,2,Jalan Flores,,,,,,,,
POINT (112.7564255 -7.2437307),-7.2437307,112.7564255,Kampung Tambak Adi DKA (RW 05),community_centre,community,4,Tambak Adi DKA,,,,,,,,
POINT (112.7296836 -7.2851858),-7.2851858,112.7296836,Kampung Pakis,community_centre,community,4,Jalan Pakis I,,,,,,,,
POINT (112.7317005 -7.2318963),-7.2318963,112.7317005,Kampung Pesapen,community_centre,community,4,Jalan Pesapen III,,,,,,,,
POINT (112.7175626 -7.2654777),-7.2654777,112.7175626,SDN Petemon X,school,education,2,,,,,,,,,
POINT (112.7194058 -7.268532),-7.268532,112.7194058,SDN Kupang Krajan 1,school,education,2,,,,,,,,,
POINT (112.7191521 -7.2674835),-7.2674835,112.7191521,Kelurahan Petemon,government,government,3,,,,,,,,,
POINT (112.6075931 -7.235878),-7.235878,112.6075931,Polsek Benowo,police,emergency,1,,,,,,,,,
POINT (112.7388143 -7.2455999),-7.2455999,112.7388143,PEMPROV JAWA TIMUR,government,government,3,Jalan Pahlawan,Surabaya,60174,,https://jatimprov.go.id/,,,,
POINT (112.7625941 -7.2947609),-7.2947609,112.7625941,K24,pharmacy,healthcare,1,,,,,,,,,
POINT (112.7466458 -7.2905095),-7.2905095,112.7466458,Klinik Pratama Sebelas Medika,clinic,healthcare,1,,,,,,,,,
POINT (112.7796234 -7.2489001),-7.2489001,112.7796234,SD Kristen Anak Panah Tunas Bangsa Ceria,school,education,2,,,,,,,,,
POINT (112.7622361 -7.2745752),-7.2745752,112.7622361,SMK Pariwisata Satya Widya,school,education,2,,,,,,,,,
POINT (112.7516768 -7.2654681),-7.2654681,112.7516768,Klinik Surabaya Utara,clinic,healthcare,1,,,,,,,,,
POINT (112.7296146 -7.250655),-7.250655,112.7296146,Pasar Turi,marketplace,community,4,,,,,,,,,
POINT (112.7195681 -7.2926108),-7.2926108,112.7195681,Erha Apothecary Mall Ciputra World Surabaya,pharmacy,healthcare,1,,,,,,,,,
POINT (112.7459777 -7.285663),-7.285663,112.7459777,KPP Pratama Surabaya Tegalsari Gedung Keuangan Negara Surabaya II,government,government,3,,,,,,,,,
POINT (112.7286504 -7.3449307),-7.3449307,112.7286504,Universitas Pelita Harapan Surabaya,university,education,2,,,,,,,,,
POINT (112.7390381 -7.307135),-7.307135,112.7390381,SD Muhammadiyah 6 Surabaya,school,education,2,,,,,,,,,
POINT (112.7251207 -7.3246162),-7.3246162,112.7251207,Klinik Pratama Adi Hayati Ketintang,clinic,healthcare,1,,,,,,,,,
POINT (112.7390773 -7.3068265),-7.3068265,112.7390773,SMA Muhammadiyah 3 Surabaya,school,education,2,,,,,,,,,
POINT (112.739056 -7.3070555),-7.3070555,112.739056,SMP Muhammadiyah 4,school,education,2,,,,,,,,,
POINT (112.7316606 -7.3087325),-7.3087325,112.7316606,Praktek Dokter Dr. Sofwan Hadi,doctors,healthcare,1,,,,,,,,,
POINT (112.733432 -7.2425526),-7.2425526,112.733432,KPP Pratama Surabaya Krembangan Gedung Keuangan Negara Surabaya I,government,government,3,,,,,,,,,
POINT (112.7386073 -7.2443979),-7.2443979,112.7386073,Kantor P2T Surabaya,government,government,3,,,,,,,,,
POINT (112.7209032 -7.2568874),-7.2568874,112.7209032,SMK Katolik ST Louis,school,education,2,,,,,,,,,
POINT (112.748356 -7.2795241),-7.2795241,112.748356,Town For Kids Preschool,kindergarten,education,2,,,,,,,,,
POINT (112.768567 -7.2905615),-7.2905615,112.768567,Little Sun School,school,education,2,,,,,,,,,
POINT (112.7258079 -7.2633996),-7.2633996,112.7258079,"Gpps Sawahan, Surabaya",place_of_worship,community,4,,,,,,,,,
POINT (112.7144478 -7.2447399),-7.2447399,112.7144478,Pos Polisi Loak,police,emergency,1,,,,,,,,,
POINT (112.7599313 -7.3201147),-7.3201147,112.7599313,Klinik Sentra Medika Surabaya,clinic,healthcare,1,,,,,,,,,
POINT (112.7512251 -7.2716764),-7.2716764,112.7512251,Dokter Gigi Eric Prasetyo,dentist,healthcare,1,,,,,,,,,
POINT (112.7600089 -7.2988591),-7.2988591,112.7600089,Klinik Mata Tritya,clinic,healthcare,1,,,,,,,,,
POINT (112.7537377 -7.2956031),-7.2956031,112.7537377,Pasar Krukah,marketplace,community,4,,,,,,,,,
POINT (112.79333 -7.252725),-7.252725,112.79333,GBI Gosyen Blessing,place_of_worship,community,4,,,,,,,,,
POINT (112.7514273 -7.3349965),-7.3349965,112.7514273,Klinik Medico Sier Kutisari,clinic,healthcare,1,,,,,,,,,
POINT (112.7521788 -7.2607912),-7.2607912,112.7521788,Mushola Baitul Yaqin Ketabang,place_of_worship,community,4,,,,,,,,,
POINT (112.6991416 -7.3373385),-7.3373385,112.6991416,SMAK Santo Yusup Karangpilang,school,education,2,,,,,,,,,
POINT (112.7451462 -7.240594),-7.240594,112.7451462,Pos Lantas POLSEK Pabean Cantikan,police,emergency,1,,,,,,,,,
POINT (112.7951887 -7.2911822),-7.2911822,112.7951887,RSGM Nala Husada,hospital,healthcare,1,,,,,,,,,
POINT (112.7578543 -7.306089),-7.306089,112.7578543,Dinas Perpustakaan Dan Kearsipan Provinsi Jawa Timur,government,government,3,,,,,,,,,
POINT (112.6980045 -7.2756076),-7.2756076,112.6980045,Gracia Fei Siang,school,education,2,,,,,,,,,
POINT (112.7957094 -7.277814),-7.277814,112.7957094,Politeknik Perkapalan Negeri Surabaya,university,education,2,,,,,,,,,
POINT (112.78915 -7.2613254),-7.2613254,112.78915,SMP Muhammadiyah 10 Surabaya,school,education,2,,,,,,,,,
POINT (112.6854425 -7.3222334),-7.3222334,112.6854425,SMP Negeri 59 Surabaya,school,education,2,,,,,,,,,
POINT (112.7560451 -7.2557722),-7.2557722,112.7560451,SMK IKIP Surabaya,school,education,2,,,,,,,,,
POINT (112.7330724 -7.2973189),-7.2973189,112.7330724,Balai Pertemuan RW VI Waringin,government,government,3,,,,,,,,,
POINT (112.7346398 -7.2676415),-7.2676415,112.7346398,Dinas Pengendalian Penduduk Pemberdayaan Perempuan Dan Perlindungan Anak,government,government,3,,,,,,,,,
POINT (112.7354954 -7.2931451),-7.2931451,112.7354954,Klinik Gigi RKZ,hospital,healthcare,1,Jalan Ciliwung,,,,,,,,
POINT (112.7237254 -7.2720146),-7.2720146,112.7237254,Bidan Sudjiati Frans,doctors,healthcare,1,,,,,,,,,
POINT (112.7952831 -7.2605642),-7.2605642,112.7952831,AKJ Aesthetic Center Pusat,clinic,healthcare,1,Jalan Raya Mulyosari,Mulyorejo,60112,+6287703041660,https://akj.co.id,Mo-Su 10:00-19:00,,,
POINT (112.7848988 -7.3304263),-7.3304263,112.7848988,Masjid Nurul Islam,place_of_worship,community,4,Jalan Rungkut Asri Timur XIII,"Rungkut, Surabaya",60293,,,,,,
POINT (112.7330655 -7.1964103),-7.1964103,112.7330655,Pelabuhan Tanjung Perak,ferry_terminal,transport,3,,,,,https://pelindo.co.id/port/pelabuhan-tanjung-perak,,Pelindo,,
POINT (112.7635328 -7.2951297),-7.2951297,112.7635328,Mushola Al Hidayah,place_of_worship,community,4,,,,,,,,,mosque
POINT (112.7311917 -7.3319572),-7.3319572,112.7311917,BRIMedika,clinic,healthcare,1,,,,,,,,,
POINT (112.735138 -7.2298398),-7.2298398,112.735138,Berlin 2,pharmacy,healthcare,1,Jalan Kebalen Timur,,,,,,,,
POINT (112.7363327 -7.2354104),-7.2354104,112.7363327,Terminal Kasuari,bus_station,transport,3,Jalan Kasuari,,,,,,,,
POINT (112.7308718 -7.233247),-7.233247,112.7308718,Langgar Wakaf Nurul Huda,place_of_worship,community,4,Jalan Indrapura Pasar,,,,,,,,
POINT (112.7422377 -7.2262568),-7.2262568,112.7422377,Masjid Riyadhuljanna,place_of_worship,community,4,Jalan Sukodono IV,,,,,,,,
POINT (112.7396891 -7.2275182),-7.2275182,112.7396891,Mushollah Darussalam,place_of_worship,community,4,Jalan Kalimas Hilir III,,,,,,,,
POINT (112.7375067 -7.2322593),-7.2322593,112.7375067,Gereja Bukit Zion Jemaat Kasuari,place_of_worship,community,4,Jalan Kasuari,,,,,,,,
POINT (112.7358798 -7.2402637),-7.2402637,112.7358798,Gereja,place_of_worship,community,4,Jalan Gatotan,,,,,,,,
POINT (112.7429556 -7.2264239),-7.2264239,112.7429556,Balai RW XVI Sukodono,school,education,2,Jalan Sukodono V,,,,,,,,
POINT (112.745375 -7.2275661),-7.2275661,112.745375,Ekspedisi Tual Express,post_office,government,3,Jalan Nyamplungan Belokan,,,,,,,,
POINT (112.7393226 -7.2451589),-7.2451589,112.7393226,Mushollah Al Barokah,place_of_worship,community,4,Jalan Johar,,,,,,,,
POINT (112.7385272 -7.2293233),-7.2293233,112.7385272,Mushollah Surgaku,place_of_worship,community,4,Jalan Kalimas Madya IV,,,,,,,,
POINT (112.7419371 -7.2274546),-7.2274546,112.7419371,TKA Al-Quran Thoyyib Fatah,place_of_worship,community,4,Jalan Sukodono I,,,,,,,,
POINT (112.7432882 -7.2273531),-7.2273531,112.7432882,Majelis Ta'lim Al Idrisyah,school,education,2,Jalan Nyamplungan X,,,,,,,,
POINT (112.7324001 -7.2326747),-7.2326747,112.7324001,Mushollah Al-Mukhlishin,place_of_worship,community,4,Jalan Pesapen IV,,,,,,,,
POINT (112.7338723 -7.2350708),-7.2350708,112.7338723,EMS Pos Indonesia,post_office,government,3,Jalan Rajawali,,,,,,,,
POINT (112.7338366 -7.2265109),-7.2265109,112.7338366,Yayasan Pendidikan Islam Al-Ikhlas,school,education,2,Jalan Kebalen Kulon III,,,,,,,,
POINT (112.7357314 -7.2292455),-7.2292455,112.7357314,Gereja Pantekosta di Indonesia Sion Permai,place_of_worship,community,4,Jalan Layar,,,,,,,,
POINT (112.7369923 -7.2448001),-7.2448001,112.7369923,Mushollag Al Hijroh,place_of_worship,community,4,Jalan Bubutan DKA 1,,,,,,,,
POINT (112.7401484 -7.2295618),-7.2295618,112.7401484,Mushollah Baiturrahman,place_of_worship,community,4,Jalan KH Mas Mansyur I,,,,,,,,
POINT (112.7337428 -7.2378024),-7.2378024,112.7337428,Yayasan Naga Samudera,place_of_worship,community,4,Jalan Adas,,,,,,,,
POINT (112.7385399 -7.2243869),-7.2243869,112.7385399,Musholla Al-Hikmah,place_of_worship,community,4,Jalan Kalimas Timur,,,,,,,,
POINT (112.7432005 -7.2271623),-7.2271623,112.7432005,Mushollah Baitul Rahman,place_of_worship,community,4,Jalan Nyamplungan Asem IV,,,,,,,,
POINT (112.7398562 -7.225188),-7.225188,112.7398562,Masjid Shuffah,place_of_worship,community,4,Jalan Benteng,,,,,,,,
POINT (112.7729858 -7.3392771),-7.3392771,112.7729858,Klinik Nuansa Senyum Dental,dentist,healthcare,1,Jalan Kyai Abdul Karim,Surabaya,60293,,,,Fahmi Fuadhi,,
POINT (112.7659018 -7.2786201),-7.2786201,112.7659018,PIBI - Pacific International Beauty Institute Surabaya,school,education,2,,,,,,,,,
POINT (112.7295966 -7.274559),-7.274559,112.7295966,Apotek Al-Fatih,pharmacy,healthcare,1,,,,,,,,,
POINT (112.7260388 -7.274492),-7.274492,112.7260388,Masjid Shirrotuljannainnaim,place_of_worship,community,4,,,,,,,,,
POINT (112.7842595 -7.3446577),-7.3446577,112.7842595,Universitas Negeri Sunan Ampel,university,education,2,,,,,,,,,
POINT (112.7362614 -7.2912069),-7.2912069,112.7362614,RS Katolik Vincentius A Poli,hospital,healthcare,1,,,,,,,,,
POINT (112.6628292 -7.2593042),-7.2593042,112.6628292,Balai RW 01,community_centre,community,4,Jalan Manukan Lor IV K,Surabaya,60185,,https://www.instagram.com/proklimrw1banjarsugihan,07:00-22:00,,,
POINT (112.7240351 -7.2517824),-7.2517824,112.7240351,Masjid Ar Ridwan,place_of_worship,community,4,,,,,,,,,
POINT (112.7255392 -7.3163154),-7.3163154,112.7255392,Gedung A10 Teknik Informatika UNESA,university,education,2,,,,,,,,,
POINT (112.747481 -7.2576937),-7.2576937,112.747481,Dinas Lingkungan Hidup Pemerintah Kota Surabaya,government,government,3,Jl. Jimerto,Surabaya,60272,,,Mo-Th 08:00-16:00; Fr 08:00-15:00; Sa 09:00-13:00,,,
POINT (112.7356612 -7.3331252),-7.3331252,112.7356612,Klinik Pratama Poltekbang Surabaya,clinic,healthcare,1,,,,,,,,,
POINT (112.7355177 -7.3342533),-7.3342533,112.7355177,Prodi TLB Poltekbang Surabaya,college,education,2,,,,,,,,,
POINT (112.7358559 -7.3341464),-7.3341464,112.7358559,Gedung Serbaguna Poltekbang Surabaya,college,education,2,,,,,,,,,
POINT (112.7360671 -7.3337953),-7.3337953,112.7360671,Akademi Teknik Dan Keselamatan Penerbangan Surabaya,college,education,2,,,,,,,,,
POINT (112.735282 -7.3344311),-7.3344311,112.735282,Unit Bahasa Politeknik Penerbangan Surabaya,college,education,2,,,,,,,,,
POINT (112.7358545 -7.3334616),-7.3334616,112.7358545,Gedung Perpustakaan Poltekbang Surabaya,library,education,2,,,,,,,,,
POINT (112.7436734 -7.2564245),-7.2564245,112.7436734,Taman Ekspresi,ferry_terminal,transport,3,,,,,,,Pemerintah Kota Surabaya,,
POINT (112.7393293 -7.2793037),-7.2793037,112.7393293,Cititrans - Surabaya,bus_station,transport,3,Jalan R.A. Kartini,,60264,,https://cititrans.co.id,,,,
POINT (112.7851661 -7.2663855),-7.2663855,112.7851661,Pemberhentian Bus Flash UNAIR,bus_station,transport,3,,,,,,,,,
POINT (112.7362334 -7.2921556),-7.2921556,112.7362334,Klinik Umum Dan Spesialis Ciliwung 26,hospital,healthcare,1,Jalan Ciliwung,,,,https://www.rkzsurabaya.com,Mo-Su 07:00-12:00,,,
POINT (112.7946353 -7.2789161),-7.2789161,112.7946353,Perpustakaan PPNS,library,education,2,,,,,,,Politeknik Perkapalan Negeri Surabaya,,
POINT (112.7437686 -7.2372611),-7.2372611,112.7437686,Vihara Dewa Kong Tek Cun Ong,place_of_worship,community,4,,,,,,,,,
POINT (112.7700704 -7.2482164),-7.2482164,112.7700704,Vihara Dharma Kasih,place_of_worship,community,4,,,,,,,,,
POINT (112.7387685 -7.3075323),-7.3075323,112.7387685,SMP Bina Taruna Surabaya,school,education,2,Jalan Gadung 17-19,,,,,Mo-Fr 07:00-15:00,,,
POINT (112.6317881 -7.2859705),-7.2859705,112.6317881,Surabaya,university,education,2,,,,,,,,,
POINT (112.7581571 -7.3131164),-7.3131164,112.7581571,SDN Tenggilis Mejoyo 1,school,education,2,Jalan Prapen Indah II,,,,,Mo-Sa 05:00-14:00,,,
POINT (112.7323808 -7.2813615),-7.2813615,112.7323808,Lembaga Ilmu Pengetahuan Islam and Arab cabang Surabaya (LIPIA SURABAYA),school,education,2,Jalan Raya Diponegoro,,,(031) 99535237,http://lipia.id,Su-Th 00:00-24:00,,,
POINT (112.7930815 -7.2775154),-7.2775154,112.7930815,Gedung SAW PENS,college,education,2,Jalan Raya ITS,,,,,,,,
POINT (112.7696554 -7.2462771),-7.2462771,112.7696554,Olympic Cargo,post_office,government,3,Jalan Putro Agung,,60135,6281311114661,,Mo-Sa 09:00-16:00,,,
POINT (112.7646779 -7.2783504),-7.2783504,112.7646779,Vihara Cun Kui,place_of_worship,community,4,Jalan Manyar Kertoarjo XIII,,60286,,,,,,
POINT (112.7836941 -7.3008964),-7.3008964,112.7836941,Wisdom Academy,school,education,2,Jalan Galaxi Klampis Asri Selatan II,,60119,0315913877,http://wisdomacademy.sch.id,,,,
POINT (112.7593962 -7.281782),-7.281782,112.7593962,Vihara Ceng Te,place_of_worship,community,4,Jalan Manyar Sambongan,,60282,,,,,,
POINT (112.7609499 -7.2340764),-7.2340764,112.7609499,Lion Parcel Sidotopo Wetan,post_office,government,3,Jalan Sidotopo Wetan Luar I,,60128,085385562588,,Mo-Sa 08:30-17:00,,,
POINT (112.72464139140882 -7.211986296475485),-7.211986296475485,112.72464139140882,Rumah Sakit TNI AL Dr. Oepomo,hospital,healthcare,1,,,,,,,,,hospital
POINT (112.7298607883753 -7.331850513688202),-7.331850513688202,112.7298607883753,Dinas Peternakan Balai Lab. Dan Rumah Sakit Hewan,government,government,3,,,,,,,,,government_office
POINT (112.72529822145466 -7.330156198232448),-7.330156198232448,112.72529822145466,Pusat Komunikasi Publik Badan Produksi Bahan Pelatihan Audio Visual,government,government,3,,,,,,,,,government_office
POINT (112.73032966575354 -7.328571179790709),-7.328571179790709,112.73032966575354,Dinas Pertanian dan Ketahanan Pangan Provinsi Jawa Timur,government,government,3,,,,,,,,,government_office
POINT (112.7304801295591 -7.2412078091723115),-7.2412078091723115,112.7304801295591,,government,government,3,,,,,,,,,
POINT (112.76623488994444 -7.300678484447448),-7.300678484447448,112.76623488994444,Sekolah Tinggi Ilmu Administrasi Panglima Sudirman,college,education,2,Jl. Nginden II/137,,,031-5947528,,,,,yes
POINT (112.60790077237228 -7.214428933921381),-7.214428933921381,112.60790077237228,MI KH.A.Sidiq,school,education,2,,,,,,,,,
POINT (112.7320017517632 -7.289850407469925),-7.289850407469925,112.7320017517632,SMP Hang Tuah 1,school,education,2,,,,,,,,,school
POINT (112.73443251165337 -7.243588662630981),-7.243588662630981,112.73443251165337,Kantor DPRD Provinsi Jawa Timur,government,government,3,,,,,,,,,government_office
POINT (112.73564644119453 -7.340124125693198),-7.340124125693198,112.73564644119453,Balai RW I,government,government,3,,,,,,,,,community_group_office
POINT (112.74453826481626 -7.263317578004018),-7.263317578004018,112.74453826481626,SMA Negeri 6 Surabaya,school,education,2,Jalan Gubernur Suryo,Surabaya,,,,,,,school
POINT (112.75894315994559 -7.306474410620193),-7.306474410620193,112.75894315994559,Dinas Pemberdayaan Perempuan,government,government,3,,,,,,,,,government_office
POINT (112.76024028198827 -7.268341331331527),-7.268341331331527,112.76024028198827,Balai Besar Laboratorium Kesehatan Surabaya,government,government,3,,,,,,,,,government_office
POINT (112.7391622797831 -7.322593370217194),-7.322593370217194,112.7391622797831,Universitas Nadhlatul Ulama Surabaya,university,education,2,,,,,,,,,
POINT (112.76508418606521 -7.297666300716869),-7.297666300716869,112.76508418606521,SMK Unitomo Surabaya,school,education,2,,,,,,,,,school
POINT (112.76451793991788 -7.297617615787652),-7.297617615787652,112.76451793991788,SMP Dr. Soetomo,school,education,2,,,,,,,,,school
POINT (112.73566646735487 -7.298951853743373),-7.298951853743373,112.73566646735487,SD-SMP Santo Yosef,school,education,2,,,,,,,,,school
POINT (112.72188889374999 -7.257422752048471),-7.257422752048471,112.72188889374999,TK-SD-SMP-SMA Yayasan Santa Louisa,school,education,2,,,,,,,,,school
POINT (112.72063283581956 -7.256737967151171),-7.256737967151171,112.72063283581956,SMP Kristen St. Vincentius,school,education,2,,,,,,,,,school
POINT (112.74833423072268 -7.23249749961251),-7.23249749961251,112.74833423072268,"TK, SMP, dan SMA Nurul Huda",school,education,2,,,,,,,,,
POINT (112.7643094724932 -7.298871853376453),-7.298871853376453,112.7643094724932,SMA Dr. Soetomo,school,education,2,,,,,,,,,school
POINT (112.7477117834337 -7.273992302330327),-7.273992302330327,112.7477117834337,SMP-SMA GIKI 2 Surabaya,school,education,2,,,,,,,,,school
POINT (112.73628791472603 -7.333375394509213),-7.333375394509213,112.73628791472603,Politeknik Penerbangan Surabaya,college,education,2,,,,,,,,,
POINT (112.73932175531243 -7.245864835960047),-7.245864835960047,112.73932175531243,Kantor Gubernur Provinsi Jawa Timur,government,government,3,,,,,,,,,governor_office
POINT (112.71523460421285 -7.336518000583381),-7.336518000583381,112.71523460421285,Masjid Nasional Al-Akbar,place_of_worship,community,4,,,,,,,,,mosque
POINT (112.74963795558921 -7.248290663173275),-7.248290663173275,112.74963795558921,SMP Negeri 37 Surabaya,school,education,2,,,,,,,,,
POINT (112.79334339693852 -7.293076814282725),-7.293076814282725,112.79334339693852,Universitas Hang Tuah,university,education,2,Jl. Arief Rahman Hakim,"Keputih, Sukolilo, Surabaya, East Java",,+62 31 5945964,https://www.hangtuah.ac.id/,,,,
POINT (112.76827216965754 -7.320212079593989),-7.320212079593989,112.76827216965754,Perpustakaan Universitas Surabaya,library,education,2,,,,,,,,,yes
POINT (112.67699421271777 -7.291504299029862),-7.291504299029862,112.67699421271777,SMA Kristen Petra 1,school,education,2,Jalan Lingkar Dalam Barat,,60226,+62317347897,http://sma1.pppkpetra.or.id/,,,,
POINT (112.79547855284059 -7.2816156540142885),-7.2816156540142885,112.79547855284059,Perpustakaan ITS,library,education,2,,,,,,,,,yes
POINT (112.79248066238524 -7.27856012412382),-7.27856012412382,112.79248066238524,Mushola Vokasi,place_of_worship,community,4,,,,,,,,,mosque
POINT (112.79307774836643 -7.282358262431876),-7.282358262431876,112.79307774836643,Masjid Manarul Ilmi,place_of_worship,community,4,Jalan Raya ITS Campus,"Sukolilo, Kampus ITS, Jawa Timur, Indonesia",60111,,,,,,mosque
POINT (112.79933037141109 -7.280258788322845),-7.280258788322845,112.79933037141109,Badan RIset dan Inovasi Nasional (BRIN),government,government,3,Jalan Hidrodinamika,Surabaya,60112,+62 31 5953195,https://bth.bppt.go.id/,Mo-Fr 07:30-16:30,,,yes
POINT (112.7928406 -7.290352099999999),-7.290352099999999,112.7928406,Medical Center ITS,clinic,healthcare,1,,,,,,,,,clinic
POINT (112.79298455 -7.27639015),-7.27639015,112.79298455,Musholla,place_of_worship,community,4,,,,,,,,,mosque
POINT (112.78372452159158 -7.288660980344623),-7.288660980344623,112.78372452159158,Surabaya Convention Hall,government,government,3,,,,,,,,,government_office
POINT (112.78690355790225 -7.281285531288163),-7.281285531288163,112.78690355790225,Masjid Jami Besar Al-Ibrahim,place_of_worship,community,4,,,,,,,,,mosque
POINT (112.80925963000357 -7.291963293999725),-7.291963293999725,112.80925963000357,Masjid Al Mabruk,place_of_worship,community,4,,,,,,,,,mosque
POINT (112.76778760641531 -7.339002096890903),-7.339002096890903,112.76778760641531,Masjid Darul Falah,place_of_worship,community,4,,,,,,,,,mosque
POINT (112.80052453357817 -7.273645509860773),-7.273645509860773,112.80052453357817,Masjid Jami' Nurul Mu'minin,place_of_worship,community,4,,,,,,,,,mosque
POINT (112.789286556477 -7.290898424945649),-7.290898424945649,112.789286556477,Rumah Sakit Onkologi,hospital,healthcare,1,,,,,,,,,hospital
POINT (112.80007205000001 -7.2901849),-7.2901849,112.80007205000001,SD Muhammadiyah 26,school,education,2,,,,,,,,,school
POINT (112.78911560000002 -7.289718850000002),-7.289718850000002,112.78911560000002,"Vita School SD, SMP, SMA",school,education,2,,,,,,,,,school
POINT (112.74845175868879 -7.313836851112115),-7.313836851112115,112.74845175868879,Masjid Nurul Iman,place_of_worship,community,4,,,,,,,,,
POINT (112.78392138946606 -7.296267322018474),-7.296267322018474,112.78392138946606,Gereja Kristus Tuhan Hosana Bumi Permai,place_of_worship,community,4,,,,,,,,,church
POINT (112.76536233331153 -7.2500204344955055),-7.2500204344955055,112.76536233331153,SMP Negeri 9 Surabaya,school,education,2,,,,,,,,,
POINT (112.73145622012427 -7.196980698198658),-7.196980698198658,112.73145622012427,Terminal Penumpang Pelabuhan Tanjung Perak,ferry_terminal,transport,3,,,,,,,,,ferry_terminal
POINT (112.72563512054334 -7.212230657703767),-7.212230657703767,112.72563512054334,Masjid At-Taqwa,place_of_worship,community,4,,,,,,,,,mosque
POINT (112.73119782098854 -7.220512156963299),-7.220512156963299,112.73119782098854,Graha Barunawati,townhall,government,3,,,,,,,,,yes
POINT (112.71378967846061 -7.319121856507427),-7.319121856507427,112.71378967846061,SMP Negeri 21 Surabaya,school,education,2,,,,,,,,,
POINT (112.71444562827578 -7.328400645756274),-7.328400645756274,112.71444562827578,Puskesmas Kebonsari,clinic,healthcare,1,,,,,,,,,clinic
POINT (112.73183975218187 -7.3263051070671406),-7.3263051070671406,112.73183975218187,Pos Polisi Dolog,police,emergency,1,,,,,,,,,police
POINT (112.75413445435139 -7.265577604633846),-7.265577604633846,112.75413445435139,PDAM,government,government,3,,,,,,,,,government_office
POINT (112.73942090907087 -7.246669982224205),-7.246669982224205,112.73942090907087,Kantor Badan Perencanaan dan Pembangunan Daerah,government,government,3,,,,,,,,,government_office
POINT (112.74264677373536 -7.256686143241851),-7.256686143241851,112.74264677373536,Perhutani Divisi Regional Jawa Timur,government,government,3,,,,,,,,,government_office
POINT (112.74520354999999 -7.25617995),-7.25617995,112.74520354999999,Gereja Sidang Jemaat Allah,place_of_worship,community,4,,,,,,,,,church
POINT (112.7432714 -7.260972100000001),-7.260972100000001,112.7432714,Sekolah Zhongqiao,school,education,2,,,,,,,,,school
POINT (112.74617775000002 -7.260841150000002),-7.260841150000002,112.74617775000002,Gereja BPIB Maranatha,place_of_worship,community,4,,,,,,,,,church
POINT (112.74748100000001 -7.257693649999998),-7.257693649999998,112.74748100000001,Kantor Pemerintahan Kota Surabaya,townhall,government,3,Jalan Jimerto,Surabaya,60272,,,,,,government_office
POINT (112.74651202207957 -7.265222043101804),-7.265222043101804,112.74651202207957,Perusahan Gas Negara,government,government,3,Jalan Pemuda,Surabaya,60271,,,,,,government_office
POINT (112.7471027609135 -7.259223419359437),-7.259223419359437,112.7471027609135,Balai Kota Surabaya,townhall,government,3,Jalan Sedap Malam,Surabaya,,,,,,,townhall
POINT (112.7586289920991 -7.273017962542365),-7.273017962542365,112.7586289920991,Perpustakaan Kampus B,library,education,2,Dharmawangsa Dalam,Surabaya,60286,+62315030826,https://lib.unair.ac.id/,"08:00-16:00 open, 16:00-03:00 open ""public room""",Universitas Airlangga,,yes
POINT (112.74216287883984 -7.271147262419225),-7.271147262419225,112.74216287883984,Kantor Arsip & PDAM Kota Surabaya,community_centre,community,4,,,,,,,,,office
POINT (112.74202424999999 -7.266661499999999),-7.266661499999999,112.74202424999999,Gereja Kristus Terang Dunia,place_of_worship,community,4,Jalan Embong Sawo,Surabaya,,,,,,,church
POINT (112.7422233832503 -7.266643958924183),-7.266643958924183,112.7422233832503,Yayasan Kemala Bhayangkari,school,education,2,,,,,,,,,school
POINT (112.7457107 -7.258058949999999),-7.258058949999999,112.7457107,Gereja Baptis Indonesia Imanuel,place_of_worship,community,4,,,,,,,,,church
POINT (112.74066115597644 -7.265667111174086),-7.265667111174086,112.74066115597644,Kantor Polisi Sektor Tegalsari,police,emergency,1,Jalan Jenderal Basuki Rachmat,Surabaya,68485,+62 31 5341052,,,,,police
POINT (112.74010062904085 -7.269323490935478),-7.269323490935478,112.74010062904085,INKA/YMCA,school,education,2,,,,,,,,,school
POINT (112.73989821574675 -7.274457864494587),-7.274457864494587,112.73989821574675,Masjid As Sayyid Abbas Almaliky,place_of_worship,community,4,,,,,,,,,mosque
POINT (112.73705626907609 -7.2661802965447215),-7.2661802965447215,112.73705626907609,RSIA PUSURA,hospital,healthcare,1,Jalan Tegalsari,Surabaya,60261,,,,,,hospital
POINT (112.72873755 -7.257465949999999),-7.257465949999999,112.72873755,Sekolah Shindu Bhavan,school,education,2,,,,,,,,,
POINT (112.74532204606321 -7.267730508941233),-7.267730508941233,112.74532204606321,Gereja Injili Indonesia,place_of_worship,community,4,,,,,,,,,church
POINT (112.74246601609258 -7.266840002892593),-7.266840002892593,112.74246601609258,UPTD BPS KECAMATAN GENTENG,government,government,3,,,,,,,,,government_office
POINT (112.73591698411771 -7.26742974103614),-7.26742974103614,112.73591698411771,TCM Sari Alam,clinic,healthcare,1,,,,,,,,,clinic
POINT (112.7386769087503 -7.270841248807777),-7.270841248807777,112.7386769087503,SMP Sapta Marga,school,education,2,,,,,,,,,school
POINT (112.73832026454893 -7.267928530692152),-7.267928530692152,112.73832026454893,Erha,clinic,healthcare,1,Jalan Kombes M. Duryat,Surabaya,60226,,,,,,clinic
POINT (112.73730139591005 -7.26742144439387),-7.26742144439387,112.73730139591005,Gereja Kristen Abdiel Elyon,place_of_worship,community,4,,,,,,,,,church
POINT (112.73912422152236 -7.268102446018571),-7.268102446018571,112.73912422152236,Panti Asuhan Matahari Terbit,clinic,healthcare,1,Jalan Kombes M. Duryat,,60262,,,,,,clinic
POINT (112.73838315936429 -7.26950812639772),-7.26950812639772,112.73838315936429,Mawar sharon Christan School,school,education,2,Jalan Cempaka,Surabaya,,,,,,,school
POINT (112.77500160868607 -7.327509110794218),-7.327509110794218,112.77500160868607,SMA Negeri 17,school,education,2,,,,,,,,,
POINT (112.77913238893323 -7.280099870138651),-7.280099870138651,112.77913238893323,Kantor Pengurus Perpani Jawa Timur,government,government,3,,,,,,,,,government_office
POINT (112.72967675000002 -7.26193435),-7.26193435,112.72967675000002,TK Masa Putra Bakti,kindergarten,education,2,,,,,,,,,kindergarten
POINT (112.77982731637103 -7.282813268866051),-7.282813268866051,112.77982731637103,RSU Haji Surabaya,hospital,healthcare,1,Jl. Manyar Kertoadi,"Klampis Ngasem, Sukolilo, Surabaya",60117,031-5924000,https://rsuhaji.jatimprov.go.id,,,,hospital
POINT (112.74165134999998 -7.2101827499999995),-7.2101827499999995,112.74165134999998,Masjid Assalam,place_of_worship,community,4,,,,,,,,,mosque
POINT (112.71267990000001 -7.271189950000003),-7.271189950000003,112.71267990000001,Masjid Baitul Mujahidin,place_of_worship,community,4,,,,,,,,,mosque
POINT (112.71350245000001 -7.268732050000001),-7.268732050000001,112.71350245000001,Pasar Surya,marketplace,community,4,,,,,,,,,marketplace
POINT (112.71180675 -7.26880575),-7.26880575,112.71180675,Masjid Al Falah,place_of_worship,community,4,,,,,,,,,mosque
POINT (112.71208984263956 -7.268649669338129),-7.268649669338129,112.71208984263956,Masjid Baitul Ilmin,place_of_worship,community,4,,,,,,,,,mosque
POINT (112.74275971240263 -7.274845535870169),-7.274845535870169,112.74275971240263,Pasar Keputran,marketplace,community,4,,,,,,,,,
POINT (112.74364774412234 -7.274031969375447),-7.274031969375447,112.74364774412234,Kantor Polsek Tegalsari Pos Keputran,police,emergency,1,,,,,,,,,police
POINT (112.73618400000734 -7.256199943544745),-7.256199943544745,112.73618400000734,SMP Negeri 3 Surabaya,school,education,2,Jalan Praban,Surabaya,60275,+62 31 5341021,https://smpn3sby.sch.id/,,,,
POINT (112.72183751908302 -7.3170940530106865),-7.3170940530106865,112.72183751908302,Masjid Baitussalam,place_of_worship,community,4,,,,,,,,,mosque
POINT (112.78239475173554 -7.311421547319279),-7.311421547319279,112.78239475173554,STIKOM,college,education,2,,,,,,,,,
POINT (112.77116196484437 -7.338384978529559),-7.338384978529559,112.77116196484437,Polsek Rungkut,police,emergency,1,,,,,,,,,
POINT (112.78492219807507 -7.2698205867786765),-7.2698205867786765,112.78492219807507,Rumah Sakit Universitas Airlangga,hospital,healthcare,1,Jalan Dharmahusada Indah Utara,Surabaya,60115,+62315916290,,,,,hospital
POINT (112.65334064028258 -7.2181752897860445),-7.2181752897860445,112.65334064028258,Terminal Tambak Osowilangon,bus_station,transport,3,,,,,,,,,
POINT (112.7793119290785 -7.212769859090199),-7.212769859090199,112.7793119290785,Terminal Kedung Cowek,bus_station,transport,3,,,,,,,,,
POINT (112.64869194022677 -7.31804727120795),-7.31804727120795,112.64869194022677,SMP Negeri 40 Surabaya,school,education,2,,Surabaya,,,,,,,school
POINT (112.75012872285524 -7.25668245840438),-7.25668245840438,112.75012872285524,SMA Negeri 5 Surabaya,school,education,2,Kusuma Bangsa,Surabaya,,,,,,,
POINT (112.74479159812951 -7.2815042709610225),-7.2815042709610225,112.74479159812951,Universitas Katolik Widya Mandala Surabaya,university,education,2,Jl. Dinoyo 42-44,"Keputran, Tegal Sari, Surabaya",60261,,,,,,
POINT (112.73822743238584 -7.287382378377592),-7.287382378377592,112.73822743238584,Rumah Sakit Darmo,hospital,healthcare,1,Jalan Raya Darmo,Surabaya,60241,,,,,,
POINT (112.68382005991718 -7.275935968458457),-7.275935968458457,112.68382005991718,Pasar Permai,marketplace,community,4,,,,,,,,,
POINT (112.73719008548842 -7.2987147618047565),-7.2987147618047565,112.73719008548842,Polsek Wonokromo,police,emergency,1,Jl. Jayabaya,,,,,,,,police
POINT (112.74801667464673 -7.310141146457777),-7.310141146457777,112.74801667464673,Masjid An Nur,place_of_worship,community,4,,,,,,,,,mosque
POINT (112.7437325358 -7.310497632077403),-7.310497632077403,112.7437325358,SD Negeri Margorejo IV/406,school,education,2,,,,,,,,,
POINT (112.7793476 -7.302423900000001),-7.302423900000001,112.7793476,Pasar Semolowaru,marketplace,community,4,,,,,,,,,marketplace
POINT (112.79694798859924 -7.28986214685117),-7.28986214685117,112.79694798859924,Masjid As Sa'adah,place_of_worship,community,4,,,,,,,,,mosque
POINT (112.79778930192936 -7.288580326993518),-7.288580326993518,112.79778930192936,Musholla Salman,place_of_worship,community,4,,,,,,,,,mosque
POINT (112.78823525091694 -7.283115734882599),-7.283115734882599,112.78823525091694,Pondok Pesantren Muhyiddin,school,education,2,"Jl. Gebang Kidul No.66, Gebang Putih, Sukolilo, Kota SBY, Jawa Timur 60117","Sukolilo, Surabaya",60117,,,,,,yes
POINT (112.7843994216862 -7.279652174712984),-7.279652174712984,112.7843994216862,Kinderland Preschool,kindergarten,education,2,,,,,,,,,kindergarten
POINT (112.78528812007157 -7.268235494545212),-7.268235494545212,112.78528812007157,Perpustakaan Kampus C,library,education,2,,,,,,,,,university
POINT (112.80296479298613 -7.265270868428905),-7.265270868428905,112.80296479298613,Masjid Al Madani,place_of_worship,community,4,,,,,,,,,mosque
POINT (112.78692688379012 -7.270248685595932),-7.270248685595932,112.78692688379012,Masjid FKH,place_of_worship,community,4,,,,,,,,,mosque
POINT (112.73510159029684 -7.285682471582319),-7.285682471582319,112.73510159029684,SD Negeri Dr. Soetomo V-VIII,school,education,2,,Surabaya,,,,,,,
POINT (112.76389733807298 -7.286695856063337),-7.286695856063337,112.76389733807298,Diploma Teknik Sipil ITS,university,education,2,,Surabaya,,,,,,,
POINT (112.76209256058716 -7.286221520186437),-7.286221520186437,112.76209256058716,Rumah Sakit Jiwa Menur Provinsi Jawa Timur,hospital,healthcare,1,,"Kertajaya, Gubeng, Surabaya, East Java",,,,,,,
POINT (112.78280509389597 -7.2821789261465435),-7.2821789261465435,112.78280509389597,TK Kita Semua,kindergarten,education,2,,,,,,,,,kindergarten
POINT (112.7815695285668 -7.2854189432924565),-7.2854189432924565,112.7815695285668,Polsek Sukolilo,police,emergency,1,,,,,,,,,police
POINT (112.75988319452382 -7.270312034921101),-7.270312034921101,112.75988319452382,Masjid As-Sakinah,place_of_worship,community,4,Jalan Airlangga,Surabaya,,,,,,,yes
POINT (112.74997924392937 -7.258391924273896),-7.258391924273896,112.74997924392937,TK Permata Bunda,kindergarten,education,2,,,,,,,,,kindergarten
POINT (112.79010222234436 -7.244539834393091),-7.244539834393091,112.79010222234436,Masjid Al Muttaqien,place_of_worship,community,4,,,,,,,,,mosque
POINT (112.79335694999999 -7.24531845),-7.24531845,112.79335694999999,Gereja Protestan Jemaat Nazareth,place_of_worship,community,4,,,,,,,,,church
POINT (112.79054691991283 -7.242861823809665),-7.242861823809665,112.79054691991283,TK Hang Tuah 6,kindergarten,education,2,,,,,,,,,kindergarten
POINT (112.78971032473547 -7.242759654735897),-7.242759654735897,112.78971032473547,Masjid An-Nur,place_of_worship,community,4,,,,,,,,,mosque
POINT (112.79285734544976 -7.24206827426601),-7.24206827426601,112.79285734544976,Klinik Pratama,clinic,healthcare,1,,,,,,,,,clinic
POINT (112.79302763868854 -7.246697624361018),-7.246697624361018,112.79302763868854,Balai Pertemuan RW VII,government,government,3,,,,,,,,,community_group_office
POINT (112.79370567364539 -7.241605964868274),-7.241605964868274,112.79370567364539,Graha Persatuan Purnawirawan Angkatan Laut,townhall,government,3,,,,,,,,,yes
POINT (112.77307360714475 -7.289841381132931),-7.289841381132931,112.77307360714475,Masjid Haqqul Yaqien,place_of_worship,community,4,Jalan Menur Pumpungan,,,,,,,,mosque
POINT (112.79563403918843 -7.344495227775625),-7.344495227775625,112.79563403918843,Politeknik Pelayaran Surabaya,university,education,2,,,,,,,,,
POINT (112.77859683330473 -7.313764250420825),-7.313764250420825,112.77859683330473,Pendopo,community_centre,community,4,,,,,,,,,public
POINT (112.73869094614582 -7.279720922048394),-7.279720922048394,112.73869094614582,TK Diana,kindergarten,education,2,,,,,,,,,kindergarten
POINT (112.78049707924139 -7.281804039334059),-7.281804039334059,112.78049707924139,Kantor Komite Olahraga Nasional,government,government,3,,,,,,,,,government_office
POINT (112.78056106774652 -7.281003248702919),-7.281003248702919,112.78056106774652,Masjid KONI,place_of_worship,community,4,,,,,,,,,mosque
POINT (112.78034271076652 -7.281029748127324),-7.281029748127324,112.78034271076652,Kantor Komite Olahraga Nasional Indonesia Cabang Surabaya,government,government,3,,,,,,,,,government_office
POINT (112.80355649490495 -7.293014073164117),-7.293014073164117,112.80355649490495,Gedung Serbaguna Blok A RT 1 RW 6 Bumi Marina Emas,community_centre,community,4,,,,,,,,,community_centre
POINT (112.77092214614107 -7.330642392137757),-7.330642392137757,112.77092214614107,Pasar Pahing,marketplace,community,4,,,,,,Sa-Su 04:00-17:00,,,
POINT (112.77640528912715 -7.327363561337728),-7.327363561337728,112.77640528912715,Kantor Kelurahan Rungkut Kidul,government,government,3,,,,,,,,,
POINT (112.7734836 -7.327382950000001),-7.327382950000001,112.7734836,Masjid Al Maghfirah,place_of_worship,community,4,,,,,,,,,
POINT (112.7758496793582 -7.327760171851319),-7.327760171851319,112.7758496793582,Perpustakaan Kota Surabaya,library,education,2,,,,,,,,,
POINT (112.77284931996753 -7.327455321812772),-7.327455321812772,112.77284931996753,SMP Negeri 35,school,education,2,,,,,,,,,
POINT (112.7905868142966 -7.333524004651316),-7.333524004651316,112.7905868142966,Masjid Istiqomah,place_of_worship,community,4,,,,,,,,,mosque
POINT (112.77092652324883 -7.330004825735681),-7.330004825735681,112.77092652324883,SD Negeri Rungkut Kidul I/267,school,education,2,,,,,,,,,
POINT (112.66485474597826 -7.198601464907224),-7.198601464907224,112.66485474597826,Tempat Pelelangan Ikan,marketplace,community,4,,,,,,,,,marketplace
POINT (112.75251447525362 -7.266177601567064),-7.266177601567064,112.75251447525362,PT KAI DAOP 8 Surabaya,government,government,3,,,,,,,,,government_office
POINT (112.79513353256715 -7.28285890307738),-7.28285890307738,112.79513353256715,Institut Teknologi Sepuluh Nopember,university,education,2,,,,,,,"Kementerian Riset, Teknologi, dan Pendidikan Tinggi",,
POINT (112.75303919999998 -7.26695325),-7.26695325,112.75303919999998,Masjid Al Ittihaad,place_of_worship,community,4,,,,,,,,,mosque
POINT (112.75250385794475 -7.290030510441733),-7.290030510441733,112.75250385794475,Masjid Baitul Falah,place_of_worship,community,4,,,,,,,,,mosque
POINT (112.74977651776838 -7.296323808551026),-7.296323808551026,112.74977651776838,Masjid Kautsar Ikhlas,place_of_worship,community,4,,,,,,,,,mosque
POINT (112.75649292873281 -7.2745448297168975),-7.2745448297168975,112.75649292873281,Masjid Baabusallam,place_of_worship,community,4,,,,,,,,,mosque
POINT (112.7814715096871 -7.30820307842573),-7.30820307842573,112.7814715096871,Masjid Al-Ikhlas,place_of_worship,community,4,,,,,,,,,mosque
POINT (112.66625864588799 -7.268637254744567),-7.268637254744567,112.66625864588799,Masjid Muttaqien,place_of_worship,community,4,,,,,,,,,mosque
POINT (112.77478333522099 -7.305775849719996),-7.305775849719996,112.77478333522099,Masjid Al Quddus,place_of_worship,community,4,Jalan Semolo Elok Blok L,Surabaya,60119,,,,,,mosque
POINT (112.60787997852128 -7.235590393533228),-7.235590393533228,112.60787997852128,Terminal Benowo,bus_station,transport,3,,,,,,,,,
POINT (112.78649029239773 -7.269999797221849),-7.269999797221849,112.78649029239773,Rumah Sakit Khusus Infeksi,hospital,healthcare,1,Jl. Mulyorejo,Surabaya,60115,(031) 5961389,rski.unair.ac.id,,,,hospital
POINT (112.78639332660434 -7.266715002870677),-7.266715002870677,112.78639332660434,Kampus C Universitas Airlangga,university,education,2,Jl. Mulyorejo,Surabaya,60115,,,,Universitas Airlangga,,
POINT (112.7702136816234 -7.2222073236004825),-7.2222073236004825,112.7702136816234,Pondok Pesantren Al Fitrah,school,education,2,Jalan Kedinding Lor,Surabaya,60129,+62 31 3722771,https://www.alfithrah99sby.org/,,,,
POINT (112.77835611926822 -7.2267758163520766),-7.2267758163520766,112.77835611926822,Masjid At Tin,place_of_worship,community,4,Jalan Kedinding Tengah Sekolahan,"Kota Surabaya, Jawa Timur",60129,+62 31 51501432,,,,,mosque
POINT (112.63457788491247 -7.280917156911656),-7.280917156911656,112.63457788491247,Ciputra Hospital,hospital,healthcare,1,,,,,,,Ciputra Group,,
POINT (112.6497494681835 -7.291387990570094),-7.291387990570094,112.6497494681835,SD-SMA Surabaya Intercultural School,school,education,2,,,,+62317414300,https://www.sis.sch.id/,,,,
POINT (112.66965729362818 -7.300983340158881),-7.300983340158881,112.66965729362818,Universitas Negeri Surabaya,university,education,2,,,,,https://www.unesa.ac.id/,,,,
POINT (112.66219065889273 -7.259969723363806),-7.259969723363806,112.66219065889273,Pasar Manukan Kulon,marketplace,community,4,,,,,,,,,marketplace
POINT (112.66228278795053 -7.2667752087542254),-7.2667752087542254,112.66228278795053,SMP Katolik Karitas,school,education,2,,,,,,,,,school
POINT (112.6692058805671 -7.30212869249544),-7.30212869249544,112.6692058805671,Masjid Al-Hikmah,place_of_worship,community,4,,,,,,,,,university
POINT (112.67304905972264 -7.303510019541474),-7.303510019541474,112.67304905972264,Masjid Baitul Makmur,place_of_worship,community,4,,,,,,,,,mosque
POINT (112.74528143414238 -7.29504989007481),-7.29504989007481,112.74528143414238,SMP Jalan Jawa,school,education,2,,,,,,,,,school
POINT (112.72848067754092 -7.3300887391075396),-7.3300887391075396,112.72848067754092,Kementerian Agraria Dan Tata Ruang / Badan Pertanahan Negara,government,government,3,,Surabaya,,,,,,,
POINT (112.76793140926529 -7.289554918168239),-7.289554918168239,112.76793140926529,Dinas Perpustakaan Dan Kearsipan,library,education,2,,,,,,,,,yes
POINT (112.72159187333337 -7.273118420686018),-7.273118420686018,112.72159187333337,SD Negeri Banyu Urip VIII/ 522,school,education,2,,,,,,,,,school
POINT (112.72165792220217 -7.272901075584242),-7.272901075584242,112.72165792220217,SD Negeri Banyu Urip IV/ 365,school,education,2,,,,,,,,,school
POINT (112.75663322288418 -7.270870981712289),-7.270870981712289,112.75663322288418,Pusat Layanan Kesehatan Unair,clinic,healthcare,1,,,,,,,,,yes
POINT (112.73548135955484 -7.291969088512476),-7.291969088512476,112.73548135955484,Rumah Sakit Katolik St. Vincentius A Paulo (RKZ),hospital,healthcare,1,,,,,,,,,
POINT (112.77457522230412 -7.285937408539323),-7.285937408539323,112.77457522230412,Masjid Achmad Klampis Ngasem,place_of_worship,community,4,,,,,,,,,mosque
POINT (112.7387479136168 -7.294310492776584),-7.294310492776584,112.7387479136168,Perpustakaan Bank Indonesia,library,education,2,,,,,,,,,yes
POINT (112.7389194382462 -7.288563394666918),-7.288563394666918,112.7389194382462,Apotek Kimia Farma 45 Darmo 94,pharmacy,healthcare,1,Jalan Raya Darmo,Surabaya,,,,,,,yes
POINT (112.73694641037311 -7.242081703366036),-7.242081703366036,112.73694641037311,Gereja Santa Perawan Maria,place_of_worship,community,4,Jalan Kepanjen,Surabaya,60161,,,,,,church
POINT (112.78122384585289 -7.291571725293178),-7.291571725293178,112.78122384585289,Universitas Katolik Darma Cendika,university,education,2,,,,,,,,,
POINT (112.64237090686713 -7.304948331008861),-7.304948331008861,112.64237090686713,Masjid Habiburrozaq,place_of_worship,community,4,,,,,,,,,mosque
POINT (112.65657498407079 -7.2832537193191875),-7.2832537193191875,112.65657498407079,Masjid Baiturrozaq,place_of_worship,community,4,,,,+62 31 7412437,http://www.masjidbaiturrozaq.com/,,,,mosque
POINT (112.73773536140841 -7.305639132637789),-7.305639132637789,112.73773536140841,Puskesmas Jagir,clinic,healthcare,1,Jalan Bendul Merisi,Surabaya,,,,,Dinas Kesehatan Kota Surabaya,,clinic
POINT (112.73908580627663 -7.305614185054444),-7.305614185054444,112.73908580627663,UPT Latkesmas Murnajati,clinic,healthcare,1,Jalan Bendul Merisi,Surabaya,,,,,,,clinic
POINT (112.7368202408677 -7.241240978407231),-7.241240978407231,112.7368202408677,Yayasan Mardi Wiyata Perwakilan Surabaya,school,education,2,,,,,,,,,
POINT (112.73878022835933 -7.24431780345755),-7.24431780345755,112.73878022835933,Badan Penanaman Modal Jawa Timur,government,government,3,Jalan Pahlawan,Surabaya,,,http://p2t.jatimprov.go.id/,,,,government_office
POINT (112.72116414409118 -7.290430411569324),-7.290430411569324,112.72116414409118,SD-SMP-SMA-SMK Gema 45,school,education,2,,,,,,,,,school
POINT (112.74785045469287 -7.2683772077783875),-7.2683772077783875,112.74785045469287,KPP Pratama Genteng,government,government,3,,,,,,,,,government_office
POINT (112.74164285794949 -7.266548588575703),-7.266548588575703,112.74164285794949,Komisi Pengawas Persaingan Usaha Kanwil IV RI,government,government,3,,,,,,,,,yes
POINT (112.7427187969861 -7.26682038467589),-7.26682038467589,112.7427187969861,Kantor Kelurahan Embong Kaliasin,government,government,3,,,,,,,,,village_office
POINT (112.72839205794394 -7.251154133698875),-7.251154133698875,112.72839205794394,Masjid Al Amiin,place_of_worship,community,4,,,,,,,,,mosque
POINT (112.74608311485851 -7.270127693953977),-7.270127693953977,112.74608311485851,KANTOR WILAYAH KEMENTERIAN HUKUM DAN HAM JAWA TIMUR,government,government,3,Jl. Kayon,Embong Kaliasin,60271,,,Mo-Th 07:30-16:00; Fr 07:30-15:30,,,government_office
POINT (112.74261964360433 -7.268996340595522),-7.268996340595522,112.74261964360433,Gereja Pantekosta Kristus Gembala,place_of_worship,community,4,,,,,,,,,yes
POINT (112.74412850470203 -7.264345516355646),-7.264345516355646,112.74412850470203,Otoritas Jasa Keuangan,government,government,3,Jalan Gubernur Suryo,Surabaya,,,,,,,yes
POINT (112.74366764992811 -7.264187281043423),-7.264187281043423,112.74366764992811,SD Negeri Kaliasin 1 & 3,school,education,2,,,,,,,,,school
POINT (112.7460843570323 -7.266114950466449),-7.266114950466449,112.7460843570323,Balai RW I Embong Kaliasin,government,government,3,,,,,,,,,community_group_office
POINT (112.74852465158727 -7.267820271888175),-7.267820271888175,112.74852465158727,Gereja Kristen Abdiel Trinitas,place_of_worship,community,4,,,,,,,,,church
POINT (112.74337994187701 -7.263995070221217),-7.263995070221217,112.74337994187701,Kantor Pos Indonesia,post_office,government,3,,,,,,07:00-15:00,Pos Indonesia,,post_office
POINT (112.74610226936768 -7.291297486891958),-7.291297486891958,112.74610226936768,Gereja Yesus Kristus,place_of_worship,community,4,Jalan Upa Jiwa,Surabaya,,+62 31 5689165,,,,,church
POINT (112.74548257303664 -7.291164412239229),-7.291164412239229,112.74548257303664,GBI Berkat Bagi Bangsa,place_of_worship,community,4,Jalan Ratna XIV,Surabaya,60246,,,,,,church
POINT (112.74546646898605 -7.263026625847252),-7.263026625847252,112.74546646898605,DPRD Kota Surabaya,government,government,3,,,,,,,,,government_office
POINT (112.74546420842904 -7.263560103211288),-7.263560103211288,112.74546420842904,Perpustakaan Umum,library,education,2,,,,,,,,,yes
POINT (112.74234733447062 -7.262152050954851),-7.262152050954851,112.74234733447062,SMK Kesehatan Nusantara,school,education,2,,,,,,,,,school
POINT (112.74263344902673 -7.262566317074044),-7.262566317074044,112.74263344902673,SMA Trimurti,school,education,2,,,,,,,,,school
POINT (112.71242281056335 -7.220853867999661),-7.220853867999661,112.71242281056335,Akademi Angkatan Laut,college,education,2,,Surabaya,,,,,,,
POINT (112.7514430537856 -7.269476009454748),-7.269476009454748,112.7514430537856,Klinik Ultra Medica,clinic,healthcare,1,,,,,,,,,yes
POINT (112.75145819832217 -7.269280113518454),-7.269280113518454,112.75145819832217,Kelurahan Gubeng,government,government,3,,,,,,,,,village_office
POINT (112.75116327074967 -7.269331757655579),-7.269331757655579,112.75116327074967,MedicElle Clinic Gubeng,clinic,healthcare,1,,,,,,,,,yes
POINT (112.74856214084355 -7.273877323875257),-7.273877323875257,112.74856214084355,SMP Negeri 6 Surabaya,school,education,2,,,,,,,,,school
POINT (112.74791828475732 -7.271308577283298),-7.271308577283298,112.74791828475732,Palang Merah Indonesia Kota Surabaya,government,government,3,,,,,,,,,government_office
POINT (112.74910545 -7.276231050000001),-7.276231050000001,112.74910545,The Emdee Skin Clinic,clinic,healthcare,1,Jl. Biliton,"Gubeng, Surabaya, East Java",60281,,,,,,clinic
POINT (112.75057622693174 -7.273956195418978),-7.273956195418978,112.75057622693174,Kantor Pos Gubeng,post_office,government,3,,,,,,,,,post_office
POINT (112.74594417370037 -7.273807060731858),-7.273807060731858,112.74594417370037,BPJS Ketenagakerjaan Surabaya,government,government,3,,,,,,,,,government_office
POINT (112.74482815846441 -7.273754607578166),-7.273754607578166,112.74482815846441,RSIA Ferina Surabaya,hospital,healthcare,1,,,,,,,,,yes
POINT (112.76132991372236 -7.293173031951129),-7.293173031951129,112.76132991372236,Universitas Surabaya,university,education,2,,,,,,,,,
POINT (112.74779520033877 -7.277102150116032),-7.277102150116032,112.74779520033877,JNE,post_office,government,3,,,,,,,,,yes
POINT (112.74793504488939 -7.277117143918135),-7.277117143918135,112.74793504488939,Elizabeth Medical Centre,clinic,healthcare,1,,,,,,,,,clinic
POINT (112.74232838141472 -7.281078810140774),-7.281078810140774,112.74232838141472,Gereja Katolik Hati Kudus Yesus,place_of_worship,community,4,Jalan Polisi Istimewa,"Keputran, Tegalsari, Surabaya",60265,,,,,,church
POINT (112.74204062686405 -7.281277137008202),-7.281277137008202,112.74204062686405,Keuskupan Surabaya,place_of_worship,community,4,Jalan Polisi Istimewa,"Keputran, Tegalsari, Surabaya",60265,,,,,,
POINT (112.74327708811747 -7.280573423637601),-7.280573423637601,112.74327708811747,SMA Katolik St. Louis 1,school,education,2,Jalan Polisi Istimewa,"Keputran, Tegal Sari, Surabaya",60265,,https://smakstlouis1sby.sch.id/,,,,school
POINT (112.74231280641688 -7.281507008808036),-7.281507008808036,112.74231280641688,TK SD SMP St. Katarina,school,education,2,,,,,,,,,school
POINT (112.78312107043661 -7.268128328841815),-7.268128328841815,112.78312107043661,Masjid Ulul Azmi,place_of_worship,community,4,"Jl. Unair, Airlangga",Surabaya,60286,,,,,,mosque
POINT (112.65469200852976 -7.293136761372424),-7.293136761372424,112.65469200852976,Gereja Katolik Santo Yakobus,place_of_worship,community,4,,,,+62317412800,https://santoyakobus.org/,,,,church
POINT (112.65231519606353 -7.293899529514055),-7.293899529514055,112.65231519606353,Gereja Bethany Citraland,place_of_worship,community,4,,,,+62315936880,http://bethanygraha.org/id/?lang=en#cbp=gereja-cabang.php?id_page=20&lang=en,,,,church
POINT (112.64842464397906 -7.293509856277299),-7.293509856277299,112.64842464397906,Apple Tree Pre-School,kindergarten,education,2,,,,+623151160033,https://appletreeps.com/,Mo-Fr 07:00-15:00,,,kindergarten
POINT (112.74541145 -7.233660549999999),-7.233660549999999,112.74541145,Masjid Salafy,place_of_worship,community,4,,,,,,,,,mosque
POINT (112.7399694 -7.246363100000002),-7.246363100000002,112.7399694,Masjid Baitul Hamdi,place_of_worship,community,4,,,,,,,,,mosque
POINT (112.72724541076222 -7.343743876659003),-7.343743876659003,112.72724541076222,Dinas Perhubungan Kota Surabaya,government,government,3,Jl. Dukuh Menanggal,Surabaya,60234,,,,,,
POINT (112.80038577776504 -7.289367109677098),-7.289367109677098,112.80038577776504,Puskesmas Pembantu Sukolilo,clinic,healthcare,1,Jalan KH. Ahmad Dahlan,"Sukolilo, Surabaya, Jawa Timur",60111,,,,,,clinic
POINT (112.80218303382622 -7.283710532577653),-7.283710532577653,112.80218303382622,Pondok Pesantren Darul Hijrah,school,education,2,,,,,,,,,yes
POINT (112.80207094216892 -7.282446652456984),-7.282446652456984,112.80207094216892,Masjid Hidayatullah,place_of_worship,community,4,Jl. Kejawan Putih Tambak,"Kejawen Putih Tambak, Mulyorejo, Surabaya, East Java",,,,,,,mosque
POINT (112.73819251655759 -7.309331358601045),-7.309331358601045,112.73819251655759,Rumah Sakit Angkatan Laut Dr. Ramelan,hospital,healthcare,1,Dinas Pertanian UPT Pengawasan dan sertifikasi hasil pertanian,"Kota Surabaya, Jawa Timur",60244,031-8438153,http://rsalramelansby.id,,,,
